index_shangche,label_shangche,name,lat,lon,index_xiache,label_xiache,pop_dens,age_0_19,age_20_39,age_40_59,age_60,lu_comm,lu_res,lu_work,lu_pub,dis_pop,dis_poi
0,8,四惠枢纽站,39.905301,116.490964,0,7,25147,0.14,0.43,0.19,0.24,0.06,0.51,0.28,0.15,10.71,10.67
1,7,八王坟西,39.907188,116.469021,1,7,23908,0.16,0.36,0.26,0.22,0.1,0.45,0.31,0.14,8.89,8.79
2,8,郎家园,39.907107,116.464084,2,7,29431,0.14,0.37,0.25,0.24,0.06,0.51,0.27,0.16,8.51,8.38
3,7,大北窑东,39.907305,116.458656,3,7,20534,0.16,0.41,0.23,0.2,0.1,0.44,0.34,0.12,8.08,7.92
4,7,大北窑西,39.907343,116.454031,4,4,23152,0.14,0.38,0.26,0.22,0.1,0.48,0.29,0.13,7.72,7.53
5,7,永安里路口西,39.907162,116.442118,5,8,20733,0.14,0.42,0.21,0.23,0.11,0.41,0.34,0.14,6.84,6.54
6,7,日坛路,39.907185,116.435763,6,8,21464,0.13,0.43,0.22,0.22,0.11,0.41,0.35,0.13,6.38,6.01
7,7,北京站口东,39.907114,116.422277,7,8,21583,0.14,0.43,0.19,0.24,0.11,0.4,0.35,0.14,5.46,4.9
9,6,天安门东,39.906457,116.395946,9,8,15316,0.13,0.42,0.22,0.23,0.13,0.36,0.35,0.16,4.06,2.86
10,6,天安门西,39.90622,116.387648,10,4,16983,0.14,0.41,0.21,0.24,0.11,0.39,0.34,0.16,3.8,2.3
11,6,西单路口东,39.905894,116.37204,11,4,15012,0.14,0.4,0.22,0.24,0.1,0.45,0.3,0.15,3.63,1.6
12,6,复兴门内,39.905916,116.352131,12,4,15128,0.14,0.39,0.25,0.22,0.1,0.44,0.32,0.14,4.04,2.02
13,6,南礼士路,39.905927,116.344216,13,4,17016,0.13,0.41,0.25,0.21,0.11,0.43,0.3,0.16,4.38,2.5
14,6,工会大楼,39.906001,116.339586,14,4,17007,0.14,0.37,0.28,0.21,0.11,0.41,0.32,0.16,4.61,2.82
15,6,木樨地西,39.906406,116.326825,15,6,15578,0.16,0.37,0.22,0.25,0.11,0.39,0.35,0.15,5.32,3.76
16,8,军事博物馆,39.906228,116.316967,16,6,27712,0.15,0.4,0.22,0.23,0.06,0.5,0.28,0.16,5.98,4.55
17,8,公主坟,39.906312,116.304186,17,6,25718,0.14,0.36,0.29,0.21,0.07,0.52,0.26,0.15,6.88,5.59
18,8,翠微路口,39.906303,116.294934,18,6,28176,0.15,0.36,0.26,0.23,0.06,0.52,0.28,0.14,7.57,6.35
19,8,万寿路口西,39.90628,116.287348,19,6,25240,0.16,0.36,0.27,0.21,0.06,0.48,0.3,0.16,8.14,6.98
20,8,东翠路口,39.906284,116.281457,20,6,25560,0.17,0.38,0.22,0.23,0.06,0.47,0.31,0.16,8.6,7.48
21,5,沙沟路口西,39.906284,116.276274,21,6,10297,0.15,0.34,0.27,0.24,0.15,0.29,0.39,0.17,9,7.91
22,5,五棵松桥东,39.90628,116.27134,22,6,10425,0.14,0.36,0.28,0.22,0.14,0.3,0.41,0.15,9.39,8.32
23,5,永定路口东,39.906289,116.260418,23,6,10000,0.15,0.36,0.29,0.2,0.14,0.27,0.45,0.14,10.25,9.24
24,5,玉泉路口西,39.906274,116.245671,24,6,11739,0.15,0.41,0.2,0.24,0.14,0.28,0.42,0.16,11.44,10.48
25,5,八宝山,39.906273,116.236227,25,6,11547,0.16,0.39,0.24,0.21,0.14,0.31,0.39,0.16,12.21,11.28
26,4,地铁八宝山站,39.906272,116.231223,26,6,9138,0.15,0.34,0.3,0.21,0.14,0.24,0.46,0.16,12.62,11.7
29,5,五棵松桥西,39.90618,116.267054,29,6,11872,0.14,0.4,0.23,0.23,0.14,0.28,0.43,0.15,9.73,8.68
30,6,南菜园,39.876245,116.346106,30,4,16252,0.13,0.42,0.21,0.24,0.12,0.39,0.33,0.16,7.3,5.17
31,6,白纸坊路口西,39.876533,116.351945,31,4,17240,0.14,0.41,0.23,0.22,0.11,0.41,0.33,0.15,7.12,4.99
32,6,南樱桃园路口北,39.878017,116.357782,32,4,17966,0.12,0.4,0.26,0.22,0.11,0.44,0.29,0.16,6.85,4.72
33,6,牛街南口,39.881147,116.357613,33,4,16895,0.13,0.41,0.24,0.22,0.11,0.39,0.34,0.16,6.51,4.38
34,6,牛街礼拜寺,39.883367,116.357494,34,4,16341,0.14,0.37,0.25,0.24,0.11,0.4,0.34,0.15,6.27,4.14
35,6,牛街,39.886947,116.357423,35,4,16986,0.12,0.38,0.27,0.23,0.11,0.41,0.32,0.16,5.89,3.75
36,6,宣武医院,39.889327,116.357377,36,4,16582,0.12,0.38,0.25,0.25,0.1,0.45,0.29,0.16,5.63,3.5
37,6,槐柏树街东口,39.896077,116.357232,37,4,16637,0.13,0.38,0.25,0.24,0.12,0.4,0.33,0.15,4.91,2.78
38,6,长椿街路口北,39.898627,116.35726,38,4,17640,0.12,0.4,0.23,0.25,0.11,0.42,0.32,0.15,4.63,2.51
39,6,新文化街西口,39.903307,116.357162,39,4,16082,0.12,0.38,0.27,0.23,0.11,0.39,0.34,0.16,4.14,2.03
40,6,民族文化宫,39.905925,116.35826,40,4,16351,0.12,0.37,0.29,0.22,0.11,0.4,0.35,0.14,3.84,1.73
41,6,三里河东路南口,39.907178,116.33808,41,4,15641,0.14,0.39,0.25,0.22,0.12,0.41,0.31,0.16,4.59,2.86
43,6,月坛南街北站,39.913965,116.338976,43,4,16322,0.13,0.41,0.21,0.25,0.12,0.44,0.3,0.14,3.99,2.5
44,6,月坛北街北站,39.917986,116.338715,44,4,15067,0.13,0.39,0.23,0.25,0.11,0.43,0.32,0.14,3.71,2.45
45,6,阜外西口,39.921898,116.334475,45,8,16734,0.14,0.38,0.25,0.23,0.12,0.34,0.39,0.15,3.78,2.81
46,8,甘家口西,39.921886,116.326035,46,8,29032,0.14,0.39,0.23,0.24,0.07,0.44,0.33,0.16,4.42,3.53
47,8,白堆子口东,39.922118,116.321454,47,8,25766,0.13,0.4,0.26,0.21,0.08,0.47,0.3,0.15,4.77,3.92
48,8,马神庙,39.922476,116.313813,48,8,29291,0.15,0.43,0.2,0.22,0.07,0.46,0.3,0.17,5.36,4.57
49,8,航天桥东,39.922817,116.308694,49,8,25130,0.15,0.43,0.19,0.23,0.08,0.44,0.33,0.15,5.76,5.01
50,8,甘家口东,39.92164,116.331153,50,8,26283,0.13,0.38,0.25,0.24,0.07,0.46,0.3,0.17,4.04,3.09
51,8,百万庄西口,39.926841,116.328917,51,8,25165,0.15,0.43,0.18,0.24,0.07,0.48,0.3,0.15,3.98,3.36
52,8,百万庄中街,39.926818,116.33202,52,8,29004,0.15,0.39,0.25,0.21,0.08,0.46,0.3,0.16,3.74,3.11
53,8,百万庄东口,39.926822,116.335592,53,8,26213,0.15,0.39,0.25,0.21,0.07,0.47,0.29,0.17,3.45,2.81
54,8,展览路,39.921899,116.339744,54,8,28903,0.15,0.4,0.22,0.23,0.08,0.48,0.31,0.13,3.39,2.36
55,6,阜成门外,39.922045,116.344334,55,8,15447,0.15,0.39,0.23,0.23,0.13,0.34,0.37,0.16,3.06,1.97
56,8,阜成门,39.922142,116.348256,56,8,28439,0.15,0.42,0.2,0.23,0.07,0.46,0.31,0.16,2.79,1.64
57,8,阜成门内,39.922221,116.35159,57,8,26846,0.15,0.37,0.25,0.23,0.08,0.47,0.31,0.14,2.58,1.37
58,6,白塔寺东,39.92248,116.361003,58,5,15036,0.15,0.39,0.24,0.22,0.12,0.41,0.31,0.16,2.06,0.61
59,8,西四路口东,39.922671,116.369721,59,9,29727,0.14,0.38,0.26,0.22,0.08,0.43,0.33,0.16,1.78,0.38
60,7,西安门,39.921141,116.373287,60,8,22577,0.15,0.39,0.25,0.21,0.1,0.44,0.33,0.13,1.93,0.53
61,7,北海,39.920819,116.383588,61,8,21389,0.15,0.4,0.23,0.22,0.1,0.44,0.34,0.12,2.16,1.39
62,7,神武门,39.921852,116.389395,62,8,20278,0.15,0.37,0.25,0.23,0.1,0.45,0.33,0.12,2.31,1.9
63,7,沙滩路口西,39.922899,116.399305,63,8,22226,0.13,0.42,0.22,0.23,0.09,0.42,0.35,0.14,2.83,2.75
64,6,美术馆东,39.922855,116.406788,64,4,17141,0.12,0.39,0.26,0.23,0.11,0.4,0.32,0.17,3.36,3.38
65,6,东四路口东,39.922886,116.412853,65,4,15466,0.14,0.4,0.23,0.23,0.12,0.4,0.32,0.16,3.81,3.9
66,7,朝内小街,39.922928,116.41834,66,8,23983,0.15,0.4,0.22,0.23,0.1,0.43,0.34,0.13,4.23,4.37
67,7,朝阳门内,39.922975,116.426272,67,8,20551,0.15,0.41,0.22,0.22,0.1,0.42,0.34,0.14,4.85,5.04
68,7,朝阳门外,39.922809,116.433605,68,8,21978,0.15,0.38,0.24,0.23,0.1,0.43,0.33,0.14,5.45,5.66
69,7,神路街,39.922046,116.438285,69,8,22322,0.15,0.4,0.24,0.21,0.11,0.43,0.34,0.12,5.85,6.06
70,7,东大桥路口东,39.920953,116.445393,70,8,20040,0.14,0.4,0.24,0.22,0.1,0.41,0.35,0.14,6.47,6.66
71,7,关东店,39.919497,116.448792,71,8,23221,0.15,0.43,0.19,0.23,0.1,0.42,0.35,0.13,6.79,6.95
72,7,呼家楼西,39.918231,116.453827,72,8,21261,0.14,0.39,0.27,0.2,0.1,0.4,0.35,0.15,7.24,7.38
73,7,小庄路口东,39.914698,116.465558,73,8,20340,0.14,0.38,0.28,0.2,0.11,0.39,0.35,0.15,8.32,8.4
74,7,红庙路口西,39.914275,116.470606,74,8,21532,0.15,0.4,0.22,0.23,0.11,0.42,0.33,0.14,8.74,8.83
75,7,红庙路口东,39.914103,116.474991,75,8,23161,0.14,0.4,0.23,0.23,0.1,0.42,0.33,0.15,9.1,9.21
76,7,东大桥路口西,39.921717,116.442948,76,8,21374,0.15,0.38,0.24,0.23,0.11,0.39,0.34,0.16,6.24,6.45
77,8,甘家口北,39.923025,116.328474,77,8,26092,0.16,0.37,0.23,0.24,0.07,0.48,0.31,0.14,4.18,3.33
78,8,动物园枢纽站,39.936027,116.332676,78,8,28275,0.15,0.38,0.24,0.23,0.07,0.46,0.32,0.15,3.46,3.46
79,8,二里沟,39.934618,116.327126,79,8,27743,0.13,0.4,0.23,0.24,0.08,0.45,0.32,0.15,3.94,3.8
80,8,百万庄,39.929884,116.327725,80,8,27287,0.15,0.38,0.25,0.22,0.07,0.46,0.32,0.15,3.99,3.55
81,8,甘家口大厦,39.925783,116.328113,81,8,26011,0.15,0.38,0.26,0.21,0.07,0.49,0.28,0.16,4.09,3.41
82,8,西四路口西,39.922537,116.365975,82,9,28356,0.14,0.39,0.25,0.22,0.09,0.42,0.34,0.15,1.88,0.32
83,8,缸瓦市,39.917853,116.367408,83,8,25088,0.15,0.4,0.24,0.21,0.08,0.46,0.29,0.17,2.35,0.22
84,6,甘石桥,39.914393,116.367538,84,4,16532,0.13,0.35,0.3,0.22,0.11,0.4,0.35,0.14,2.72,0.61
85,8,西单商场,39.909603,116.367654,85,8,27932,0.15,0.41,0.21,0.23,0.08,0.45,0.32,0.15,3.25,1.14
86,8,西单路口南,39.903163,116.367855,86,8,28571,0.14,0.43,0.2,0.23,0.08,0.45,0.32,0.15,3.95,1.86
87,6,宣武门内,39.899893,116.367989,87,4,16363,0.12,0.41,0.22,0.25,0.12,0.43,0.3,0.15,4.31,2.22
88,6,校场口,39.894243,116.368156,88,8,16676,0.14,0.38,0.26,0.22,0.12,0.32,0.4,0.16,4.94,2.85
89,6,菜市口北,39.889843,116.368127,89,8,16592,0.15,0.39,0.24,0.22,0.12,0.37,0.37,0.14,5.43,3.34
90,6,果子巷,39.887848,116.372831,90,8,17223,0.14,0.42,0.21,0.23,0.12,0.38,0.35,0.15,5.63,3.59
91,6,虎坊桥路口南,39.886184,116.378473,91,8,17812,0.15,0.44,0.18,0.23,0.11,0.36,0.39,0.14,5.84,3.86
92,6,太平街北口,39.880343,116.38112,92,4,15809,0.14,0.42,0.23,0.21,0.11,0.43,0.33,0.13,6.5,4.55
93,6,太平街,39.875752,116.381185,93,8,15156,0.14,0.43,0.19,0.24,0.12,0.35,0.38,0.15,7.01,5.04
94,6,陶然桥北,39.872961,116.381314,94,8,17565,0.14,0.43,0.21,0.22,0.13,0.33,0.38,0.16,7.32,5.35
95,6,四路通,39.861043,116.380605,95,8,16583,0.13,0.39,0.27,0.21,0.12,0.36,0.36,0.16,8.64,6.64
96,6,洋桥南,39.854654,116.38057,96,4,16145,0.13,0.41,0.22,0.24,0.11,0.39,0.35,0.15,9.35,7.34
97,8,马家堡东口,39.849534,116.380698,97,6,25464,0.17,0.35,0.26,0.22,0.07,0.51,0.28,0.14,9.91,7.9
98,6,西马场北口,39.844905,116.380278,98,4,15681,0.13,0.37,0.26,0.24,0.11,0.41,0.34,0.14,10.43,8.41
99,6,西马场,39.838813,116.37939,99,4,16260,0.14,0.42,0.22,0.22,0.12,0.41,0.32,0.15,11.1,9.07
100,6,西马小区,39.838829,116.374975,100,4,15257,0.13,0.41,0.25,0.21,0.12,0.4,0.33,0.15,11.08,9.03
101,6,角门南站,39.83882,116.373587,101,4,17270,0.13,0.37,0.26,0.24,0.11,0.4,0.35,0.14,11.08,9.03
102,6,洋桥北,39.856224,116.380649,102,8,15358,0.14,0.41,0.21,0.24,0.11,0.33,0.42,0.14,9.17,7.17
103,6,虎坊路,39.883204,116.378791,103,4,16540,0.14,0.39,0.23,0.24,0.12,0.41,0.31,0.16,6.17,4.19
104,6,虎坊桥路口西,39.888069,116.375858,104,8,16029,0.15,0.38,0.25,0.22,0.12,0.34,0.39,0.15,5.61,3.61
105,8,宣武门外,39.895783,116.368356,105,8,28781,0.13,0.43,0.21,0.23,0.08,0.45,0.3,0.17,4.77,2.68
106,8,西四路口南,39.919853,116.367342,106,9,25409,0.13,0.39,0.25,0.23,0.08,0.43,0.35,0.14,2.13,0
107,7,北京站西,39.903263,116.418134,107,8,21110,0.14,0.44,0.18,0.24,0.11,0.43,0.34,0.12,5.49,4.71
108,7,北京站西街,39.900369,116.414239,108,8,21519,0.15,0.41,0.23,0.21,0.11,0.43,0.32,0.14,5.5,4.55
109,7,崇文门西,39.899721,116.410574,109,8,21488,0.15,0.39,0.25,0.21,0.1,0.43,0.34,0.13,5.37,4.32
110,7,台基厂路口东,39.899616,116.407141,110,8,23669,0.14,0.44,0.22,0.2,0.1,0.39,0.37,0.14,5.21,4.08
111,7,台基厂,39.901678,116.40546,111,8,22133,0.15,0.42,0.2,0.23,0.11,0.42,0.34,0.13,4.94,3.83
112,7,王府井路口北,39.908588,116.405261,112,8,20491,0.15,0.4,0.22,0.23,0.11,0.41,0.34,0.14,4.31,3.47
113,7,校尉胡同,39.912939,116.40776,113,8,21415,0.15,0.41,0.21,0.23,0.11,0.41,0.34,0.14,4.1,3.54
114,7,新东安市场,39.914128,116.406509,114,8,23028,0.15,0.44,0.19,0.22,0.11,0.41,0.34,0.14,3.93,3.4
115,7,东安门大街,39.913956,116.402448,115,8,22438,0.14,0.39,0.25,0.22,0.11,0.41,0.34,0.14,3.7,3.07
116,7,骑河楼,39.917856,116.400268,116,8,23529,0.15,0.39,0.23,0.23,0.12,0.41,0.33,0.14,3.26,2.82
117,7,崇文门内,39.902772,116.412145,117,8,21465,0.13,0.39,0.24,0.24,0.11,0.42,0.34,0.13,5.18,4.27
118,7,东单路口北,39.908271,116.411814,118,8,20003,0.14,0.43,0.22,0.21,0.1,0.41,0.35,0.14,4.71,4.01
119,7,米市大街,39.914841,116.411583,119,8,21270,0.15,0.38,0.27,0.2,0.1,0.42,0.35,0.13,4.21,3.82
120,7,灯市东口,39.917357,116.410362,120,8,23936,0.15,0.38,0.26,0.21,0.1,0.42,0.34,0.14,3.95,3.68
121,7,灯市西口,39.918037,116.404847,121,8,20550,0.14,0.41,0.23,0.22,0.1,0.44,0.32,0.14,3.54,3.21
122,7,美术馆北,39.923927,116.404627,122,8,23362,0.14,0.4,0.23,0.23,0.1,0.4,0.37,0.13,3.14,3.22
123,7,大佛寺,39.925897,116.402954,123,8,23663,0.14,0.41,0.24,0.21,0.11,0.39,0.36,0.14,2.91,3.11
124,7,宽街路口南,39.929616,116.402788,124,8,23523,0.15,0.44,0.2,0.21,0.11,0.43,0.32,0.14,2.72,3.22
125,6,北兵马司,39.934376,116.402554,125,4,17661,0.13,0.37,0.28,0.22,0.12,0.41,0.31,0.16,2.55,3.41
126,6,交道口南,39.937796,116.402424,126,4,16893,0.14,0.4,0.21,0.25,0.11,0.39,0.35,0.15,2.5,3.6
127,6,方家胡同,39.942585,116.402263,127,4,16039,0.13,0.35,0.27,0.25,0.11,0.4,0.34,0.15,2.53,3.91
128,6,安定门内,39.944765,116.402173,128,4,15603,0.14,0.41,0.21,0.24,0.12,0.42,0.31,0.15,2.57,4.06
130,6,蒋宅口东,39.957665,116.402821,130,4,17901,0.12,0.41,0.23,0.24,0.11,0.41,0.34,0.14,3.31,5.18
131,6,兴化路南口,39.957737,116.408465,131,4,16142,0.14,0.39,0.24,0.23,0.12,0.41,0.32,0.15,3.7,5.48
132,6,和平里北街,39.95783,116.412909,132,4,17833,0.13,0.38,0.25,0.24,0.1,0.42,0.32,0.16,4.02,5.74
133,6,和平里路口西,39.957882,116.415582,133,4,15562,0.14,0.41,0.23,0.22,0.1,0.42,0.34,0.14,4.21,5.9
135,6,柳芳北街,39.9582,116.430485,135,4,17391,0.14,0.41,0.22,0.23,0.1,0.43,0.32,0.15,5.36,6.87
136,6,国际展览中心,39.958283,116.435025,136,4,17802,0.12,0.37,0.29,0.22,0.12,0.39,0.34,0.15,5.72,7.18
137,6,静安庄东,39.959642,116.442984,137,4,16839,0.13,0.36,0.3,0.21,0.11,0.42,0.32,0.15,6.4,7.82
138,6,左家庄东里,39.954975,116.439365,138,4,17000,0.14,0.4,0.24,0.22,0.11,0.4,0.34,0.15,5.94,7.28
139,6,柳芳东口,39.953426,116.43273,139,4,17755,0.14,0.42,0.19,0.25,0.12,0.41,0.32,0.15,5.35,6.71
140,6,柳芳西口,39.953237,116.429684,140,4,15832,0.14,0.35,0.27,0.24,0.11,0.4,0.32,0.17,5.09,6.49
141,6,西坝河南路,39.956577,116.428552,141,4,16334,0.12,0.42,0.21,0.25,0.11,0.42,0.32,0.15,5.14,6.63
142,8,天桥,39.883317,116.392702,142,8,29546,0.13,0.39,0.24,0.24,0.08,0.48,0.29,0.15,6.36,4.6
143,6,友谊医院东,39.884918,116.38866,143,8,17757,0.16,0.38,0.23,0.23,0.13,0.35,0.37,0.15,6.1,4.29
144,6,永安路,39.884812,116.381754,144,8,16498,0.15,0.42,0.2,0.23,0.13,0.35,0.36,0.16,6.02,4.09
145,8,大红罗厂西口,39.926463,116.367053,145,9,25641,0.15,0.42,0.22,0.21,0.08,0.38,0.37,0.17,1.43,0.74
146,6,平安里路口南,39.928553,116.366943,146,5,16165,0.15,0.39,0.23,0.23,0.12,0.4,0.32,0.16,1.22,0.97
147,5,护国寺,39.933893,116.366683,147,5,10563,0.15,0.41,0.22,0.22,0.13,0.33,0.38,0.16,0.75,1.56
148,6,新街口南,39.937253,116.366603,148,4,16735,0.13,0.37,0.28,0.22,0.11,0.43,0.31,0.15,0.57,1.94
149,6,新开胡同,39.939189,116.361211,149,4,17506,0.13,0.41,0.24,0.22,0.12,0.43,0.31,0.14,1.02,2.21
150,6,西直门内,39.9391,116.353873,150,4,17727,0.12,0.39,0.25,0.24,0.12,0.41,0.32,0.15,1.64,2.43
154,6,新街口西,39.93925,116.364545,154,4,16980,0.12,0.37,0.29,0.22,0.11,0.43,0.31,0.15,0.73,2.17
155,6,西四路口北,39.924833,116.367134,155,5,17960,0.14,0.4,0.24,0.22,0.1,0.43,0.32,0.15,1.6,0.55
156,7,东直门枢纽站,39.940788,116.429435,156,9,23856,0.16,0.43,0.19,0.22,0.11,0.35,0.4,0.14,4.81,5.79
157,6,东直门内,39.939793,116.425198,157,4,15768,0.14,0.39,0.25,0.22,0.11,0.39,0.34,0.16,4.44,5.41
158,6,东内小街,39.939647,116.416485,158,4,16891,0.13,0.42,0.21,0.24,0.12,0.4,0.33,0.15,3.7,4.74
159,6,北新桥路口南,39.938039,116.410709,159,4,15018,0.13,0.41,0.23,0.23,0.11,0.42,0.33,0.14,3.21,4.22
160,6,东四十二条,39.93441,116.41088,160,4,16506,0.13,0.4,0.22,0.25,0.11,0.45,0.3,0.14,3.25,4.05
161,6,魏家胡同,39.93152,116.41091,161,4,17589,0.13,0.36,0.28,0.23,0.11,0.42,0.32,0.15,3.32,3.94
162,6,钱粮胡同,39.92733,116.411141,162,4,16852,0.12,0.42,0.22,0.24,0.11,0.42,0.32,0.15,3.47,3.83
163,6,东四路口南,39.92139,116.411342,163,4,16347,0.13,0.37,0.27,0.23,0.12,0.42,0.32,0.14,3.78,3.76
164,7,磁器口北,39.893342,116.412477,164,8,21364,0.15,0.38,0.23,0.24,0.11,0.4,0.34,0.15,6.04,4.85
165,7,红桥路口北,39.887873,116.412597,165,8,21926,0.15,0.43,0.21,0.21,0.1,0.41,0.35,0.14,6.56,5.25
166,6,红桥路口西,39.886981,116.410045,166,8,17975,0.15,0.38,0.22,0.25,0.13,0.34,0.37,0.16,6.54,5.16
167,6,天坛北门,39.886959,116.405122,167,8,16387,0.15,0.38,0.25,0.22,0.11,0.32,0.41,0.16,6.35,4.88
168,6,金鱼池,39.886778,116.400119,168,8,17877,0.14,0.43,0.21,0.22,0.12,0.35,0.36,0.17,6.2,4.62
169,6,天桥路口东,39.885887,116.395749,169,8,16832,0.14,0.44,0.17,0.25,0.13,0.35,0.39,0.13,6.16,4.49
170,6,北纬路东站,39.882163,116.38853,170,4,15357,0.13,0.41,0.24,0.22,0.12,0.42,0.32,0.14,6.4,4.57
171,6,北纬路,39.88201,116.383353,171,4,16149,0.12,0.38,0.25,0.25,0.11,0.41,0.32,0.16,6.34,4.42
173,6,北京南站,39.864372,116.370817,173,4,16661,0.12,0.42,0.25,0.21,0.11,0.43,0.31,0.15,8.24,6.18
174,6,永定门汽车站,39.867596,116.37674,174,4,15987,0.14,0.39,0.23,0.24,0.11,0.42,0.32,0.15,7.89,5.87
175,6,北新桥路口西,39.939548,116.408805,175,4,16458,0.12,0.37,0.28,0.23,0.12,0.42,0.31,0.15,3.05,4.16
176,6,交道口东,39.939511,116.404334,176,4,15017,0.14,0.42,0.22,0.22,0.12,0.42,0.3,0.16,2.67,3.84
177,6,小经厂,39.939448,116.400088,177,4,15605,0.13,0.42,0.23,0.22,0.1,0.45,0.3,0.15,2.3,3.54
178,6,宝钞胡同,39.93941,116.394141,178,4,16191,0.14,0.41,0.23,0.22,0.1,0.44,0.32,0.14,1.8,3.16
179,6,鼓楼,39.938142,116.389773,179,4,16346,0.14,0.42,0.21,0.23,0.11,0.42,0.33,0.14,1.42,2.79
180,6,地安门外,39.933601,116.389971,180,4,16618,0.12,0.4,0.25,0.23,0.11,0.44,0.3,0.15,1.54,2.46
181,6,北海北门,39.932077,116.384795,181,4,15630,0.14,0.4,0.22,0.24,0.11,0.38,0.34,0.17,1.23,2.02
182,6,东官房,39.9319,116.380848,182,4,16197,0.13,0.37,0.26,0.24,0.11,0.4,0.33,0.16,0.99,1.77
183,6,厂桥路口东,39.931676,116.374648,183,4,15436,0.13,0.38,0.28,0.21,0.11,0.41,0.32,0.16,0.77,1.46
184,5,平安里路口东,39.931403,116.368552,184,5,10355,0.15,0.4,0.24,0.21,0.14,0.35,0.37,0.14,0.88,1.29
185,5,平安医院,39.931102,116.359888,185,5,11213,0.15,0.39,0.23,0.23,0.14,0.33,0.38,0.15,1.39,1.4
186,5,官园,39.931092,116.35604,186,5,10418,0.15,0.42,0.2,0.23,0.14,0.35,0.36,0.15,1.67,1.58
187,5,车公庄西,39.931095,116.346433,187,5,10607,0.15,0.42,0.22,0.21,0.15,0.31,0.38,0.16,2.42,2.17
188,5,三塔寺,39.931119,116.342397,188,5,10548,0.13,0.39,0.24,0.24,0.15,0.33,0.37,0.15,2.74,2.47
189,8,二里沟东口,39.931133,116.339278,189,8,29359,0.13,0.38,0.25,0.24,0.08,0.44,0.32,0.16,3,2.7
190,8,北京展览馆,39.935493,116.337972,190,8,27174,0.14,0.41,0.21,0.24,0.07,0.48,0.29,0.16,3.01,3.05
191,5,车公庄东,39.930957,116.352189,191,5,11854,0.13,0.4,0.27,0.2,0.14,0.33,0.37,0.16,1.97,1.78
194,8,安外甘水桥,39.963104,116.401629,194,5,26471,0.15,0.39,0.24,0.22,0.06,0.53,0.24,0.17,3.66,5.63
195,8,安贞里,39.970344,116.401409,195,5,27664,0.14,0.4,0.25,0.21,0.06,0.54,0.26,0.14,4.28,6.32
196,8,五路居,39.973444,116.401439,196,5,26685,0.14,0.38,0.27,0.21,0.06,0.51,0.27,0.16,4.58,6.63
197,8,奥体东门,39.980064,116.401408,197,7,27664,0.14,0.38,0.25,0.23,0.07,0.5,0.29,0.14,5.21,7.3
198,8,安慧桥北,39.991983,116.401492,198,7,26849,0.15,0.42,0.2,0.23,0.07,0.5,0.27,0.16,6.42,8.53
199,8,炎黄艺术馆,39.996373,116.401716,199,7,28328,0.15,0.42,0.2,0.23,0.07,0.48,0.3,0.15,6.88,9
200,8,大屯南,40.000003,116.401736,200,7,26927,0.16,0.41,0.19,0.24,0.07,0.49,0.3,0.14,7.26,9.38
201,6,大屯东,40.001653,116.403086,201,5,15143,0.15,0.43,0.19,0.23,0.11,0.41,0.32,0.16,7.47,9.59
202,8,北京西站南广场,39.891025,116.318805,202,6,25847,0.15,0.36,0.28,0.21,0.07,0.46,0.31,0.16,7.02,5.23
203,8,湾子,39.888578,116.322447,203,6,26541,0.15,0.39,0.23,0.23,0.07,0.5,0.28,0.15,7.03,5.17
204,8,广外甘石桥,39.88854,116.326558,204,6,29980,0.15,0.37,0.24,0.24,0.07,0.51,0.28,0.14,6.83,4.92
205,8,达官营,39.888439,116.332833,205,6,26378,0.16,0.36,0.24,0.24,0.06,0.48,0.29,0.17,6.54,4.57
206,8,广安门内,39.887927,116.354009,206,8,28387,0.14,0.44,0.21,0.21,0.07,0.45,0.32,0.16,5.85,3.73
207,8,牛街路口西,39.887894,116.356844,207,8,25839,0.13,0.42,0.24,0.21,0.08,0.45,0.32,0.15,5.8,3.66
208,8,菜市口西,39.887799,116.362944,208,8,28568,0.14,0.43,0.2,0.23,0.08,0.47,0.3,0.15,5.7,3.58
210,7,东大桥公交场站,39.921901,116.446568,210,8,23595,0.14,0.4,0.25,0.21,0.11,0.42,0.33,0.14,6.53,6.76
211,7,八王坟南,39.905594,116.4717,211,7,21992,0.15,0.42,0.2,0.23,0.09,0.43,0.33,0.15,9.17,9.04
212,7,光辉桥南,39.903694,116.471671,212,7,22649,0.14,0.42,0.24,0.2,0.1,0.44,0.32,0.14,9.25,9.08
213,7,九龙山,39.894953,116.471465,213,7,23689,0.15,0.4,0.22,0.23,0.1,0.43,0.33,0.14,9.69,9.31
214,7,九龙山路口东,39.89179,116.47376,214,4,20665,0.13,0.39,0.27,0.21,0.1,0.48,0.3,0.12,10.03,9.6
215,7,大郊亭桥西,39.891825,116.479159,215,8,21015,0.14,0.39,0.25,0.22,0.11,0.41,0.34,0.14,10.43,10.04
216,7,大郊亭桥东,39.891786,116.487049,216,8,22156,0.14,0.44,0.21,0.21,0.1,0.42,0.33,0.15,11.02,10.68
217,7,地铁百子湾站,39.891747,116.48987,217,8,23941,0.15,0.37,0.26,0.22,0.1,0.41,0.34,0.15,11.23,10.91
218,7,唐家村,39.891729,116.493995,218,8,22860,0.15,0.37,0.27,0.21,0.11,0.38,0.36,0.15,11.55,11.25
219,7,小海子,39.891685,116.502728,219,7,20037,0.16,0.36,0.24,0.24,0.1,0.45,0.32,0.13,12.22,11.97
220,7,四根旗杆,39.891659,116.507395,220,7,23253,0.14,0.41,0.22,0.23,0.11,0.42,0.34,0.13,12.58,12.35
221,7,方家村,39.891657,116.513829,221,7,21803,0.16,0.38,0.22,0.24,0.1,0.48,0.3,0.12,13.08,12.89
222,7,朝阳半壁店,39.891743,116.520642,222,7,20943,0.15,0.37,0.25,0.23,0.09,0.48,0.3,0.13,13.62,13.45
223,7,观音堂北,39.887748,116.521395,223,4,23354,0.13,0.37,0.26,0.24,0.09,0.49,0.28,0.14,13.85,13.62
224,7,观音堂,39.883209,116.521546,224,4,23240,0.14,0.39,0.27,0.2,0.1,0.47,0.3,0.13,14.07,13.77
225,7,古塔公园,39.87754,116.52315,225,4,22536,0.14,0.35,0.3,0.21,0.09,0.49,0.29,0.13,14.48,14.1
226,7,王四营,39.873397,116.524467,226,4,23028,0.13,0.41,0.25,0.21,0.09,0.47,0.3,0.14,14.8,14.37
228,7,孛罗营村北,39.865686,116.531721,228,4,22983,0.14,0.41,0.23,0.22,0.09,0.47,0.3,0.14,15.77,15.27
229,7,孛罗营,39.861716,116.531691,229,4,23178,0.12,0.41,0.26,0.21,0.09,0.47,0.3,0.14,16,15.44
230,7,王四营桥南,39.866889,116.52495,230,4,21000,0.14,0.42,0.23,0.21,0.1,0.47,0.29,0.14,15.2,14.68
231,6,柳芳北里,39.956375,116.433446,231,4,17149,0.14,0.42,0.19,0.25,0.12,0.41,0.31,0.16,5.51,6.95
232,6,左家庄中街,39.953555,116.434825,232,4,16455,0.13,0.37,0.26,0.24,0.11,0.43,0.32,0.14,5.52,6.87
233,6,左家庄东街,39.954153,116.442077,233,4,16518,0.14,0.37,0.25,0.24,0.1,0.44,0.3,0.16,6.13,7.43
234,8,左家庄,39.949637,116.43899,234,9,27800,0.15,0.41,0.2,0.24,0.08,0.42,0.35,0.15,5.75,6.95
235,7,新源里,39.947041,116.442924,235,8,20102,0.15,0.39,0.23,0.23,0.1,0.41,0.35,0.14,6.03,7.12
236,7,塔园村,39.942625,116.444179,236,8,22488,0.14,0.42,0.23,0.21,0.12,0.41,0.34,0.13,6.08,7.03
237,7,幸福三村,39.938715,116.444193,237,8,22289,0.14,0.42,0.21,0.23,0.11,0.39,0.36,0.14,6.06,6.88
238,7,工人体育场,39.931675,116.444126,238,8,20011,0.15,0.4,0.23,0.22,0.1,0.43,0.35,0.12,6.1,6.68
239,7,朝阳医院,39.926085,116.444105,239,8,21229,0.16,0.43,0.2,0.21,0.11,0.39,0.37,0.13,6.21,6.59
240,7,东大桥路口北,39.923105,116.444107,240,8,23871,0.14,0.38,0.25,0.23,0.11,0.39,0.35,0.15,6.29,6.56
244,6,地安门内,39.931096,116.390044,244,4,15141,0.12,0.42,0.25,0.21,0.1,0.45,0.3,0.15,1.66,2.31
245,6,景山东街,39.926535,116.393194,245,4,16796,0.14,0.42,0.21,0.23,0.11,0.42,0.32,0.15,2.17,2.33
246,6,景山东门,39.923375,116.393344,246,4,16701,0.13,0.4,0.23,0.24,0.11,0.43,0.32,0.14,2.41,2.26
247,7,美术馆,39.922881,116.402946,247,8,20171,0.15,0.38,0.26,0.21,0.11,0.39,0.35,0.15,3.08,3.06
248,8,大北窑南,39.905223,116.45604,248,7,29291,0.14,0.36,0.3,0.2,0.07,0.48,0.28,0.17,7.98,7.74
249,7,大北窑北,39.909802,116.455987,249,8,21052,0.15,0.43,0.2,0.22,0.11,0.41,0.34,0.14,7.76,7.65
250,7,光华桥北,39.913862,116.455924,250,8,20134,0.14,0.44,0.19,0.23,0.11,0.39,0.37,0.13,7.58,7.59
251,7,呼家楼北,39.919921,116.455715,251,8,22312,0.15,0.42,0.21,0.22,0.1,0.39,0.36,0.15,7.34,7.54
252,7,白家庄,39.925251,116.455775,252,8,21220,0.14,0.42,0.23,0.21,0.12,0.4,0.33,0.15,7.2,7.57
253,7,白家庄北,39.928741,116.455814,253,8,22973,0.14,0.41,0.22,0.23,0.11,0.41,0.35,0.13,7.14,7.61
254,7,长虹桥西,39.932461,116.451501,254,8,22428,0.16,0.39,0.25,0.2,0.1,0.45,0.32,0.13,6.72,7.32
255,7,三里屯,39.93246,116.448452,255,8,22557,0.14,0.44,0.19,0.23,0.1,0.41,0.35,0.14,6.46,7.06
260,6,张自忠路,39.932152,116.408908,260,4,15950,0.13,0.38,0.27,0.22,0.11,0.43,0.3,0.16,3.13,3.8
261,6,宽街路口东,39.932079,116.404736,261,4,16872,0.14,0.39,0.23,0.24,0.1,0.45,0.3,0.15,2.79,3.47
262,6,外馆斜街,39.961478,116.397096,262,4,15645,0.14,0.36,0.25,0.25,0.13,0.41,0.31,0.15,3.27,5.28
263,6,安华西里,39.961831,116.39052,263,4,15406,0.14,0.41,0.22,0.23,0.11,0.39,0.34,0.16,2.99,5.07
264,6,安华桥南,39.964944,116.38856,264,4,16955,0.12,0.38,0.28,0.22,0.11,0.4,0.34,0.15,3.22,5.33
265,6,安华桥北,39.969565,116.388343,265,5,16859,0.15,0.43,0.2,0.22,0.1,0.43,0.34,0.13,3.69,5.81
266,6,安贞西里,39.972995,116.388196,266,5,16444,0.14,0.38,0.25,0.23,0.11,0.42,0.33,0.14,4.05,6.17
267,6,地铁北土城站,39.975548,116.38574,267,5,17036,0.14,0.4,0.25,0.21,0.11,0.39,0.34,0.16,4.26,6.39
268,6,华严里,39.977847,116.381762,268,5,16317,0.14,0.37,0.26,0.23,0.13,0.4,0.31,0.16,4.44,6.57
269,8,民族园西路,39.98109,116.380272,269,9,28650,0.15,0.44,0.18,0.23,0.08,0.39,0.37,0.16,4.78,6.9
270,8,祁家豁子,39.980959,116.375696,270,9,28965,0.14,0.42,0.22,0.22,0.07,0.42,0.35,0.16,4.73,6.83
271,7,长虹桥南,39.93148,116.455292,271,8,22468,0.13,0.4,0.23,0.24,0.1,0.4,0.35,0.15,7.05,7.61
272,7,呼家楼南,39.91553,116.455284,272,8,21776,0.16,0.38,0.25,0.21,0.11,0.42,0.32,0.15,7.46,7.52
273,6,白云路,39.902712,116.336709,273,4,16876,0.14,0.35,0.3,0.21,0.11,0.42,0.31,0.16,5.05,3.23
274,6,公安大学,39.901837,116.33334,274,4,15361,0.13,0.38,0.26,0.23,0.11,0.43,0.3,0.16,5.3,3.52
275,6,木樨地北,39.907344,116.329409,275,4,15453,0.12,0.41,0.25,0.22,0.11,0.42,0.33,0.14,5.09,3.52
276,8,玉渊潭东门,39.910446,116.3286,276,8,25835,0.14,0.42,0.23,0.21,0.07,0.47,0.31,0.15,4.91,3.46
277,8,钓鱼台,39.917735,116.328505,277,8,27403,0.13,0.42,0.22,0.23,0.08,0.45,0.3,0.17,4.45,3.32
278,8,二里沟西口,39.931168,116.326852,278,8,29615,0.14,0.42,0.2,0.24,0.08,0.45,0.33,0.14,4.03,3.67
279,8,四道口东,39.931158,116.321813,279,8,25675,0.14,0.39,0.26,0.21,0.07,0.48,0.29,0.16,4.45,4.08
280,8,白石桥南,39.935211,116.319807,280,8,29271,0.15,0.42,0.22,0.21,0.08,0.48,0.3,0.14,4.56,4.4
281,8,白石桥西,39.937836,116.317562,281,8,27413,0.14,0.43,0.2,0.23,0.08,0.47,0.3,0.15,4.74,4.69
282,8,紫竹院南门,39.93884,116.310209,282,5,26471,0.15,0.4,0.24,0.21,0.06,0.55,0.24,0.15,5.36,5.31
285,5,板井,39.94553,116.281174,285,5,10199,0.13,0.42,0.23,0.22,0.15,0.3,0.4,0.15,7.88,7.88
286,5,四季青桥东,39.945495,116.271355,286,5,10741,0.14,0.42,0.21,0.23,0.13,0.33,0.4,0.14,8.71,8.66
287,8,四季青桥北,39.94673,116.269536,287,6,25597,0.15,0.38,0.25,0.22,0.07,0.48,0.28,0.17,8.88,8.86
288,8,东冉村,39.954649,116.270085,288,6,29055,0.16,0.35,0.27,0.22,0.07,0.47,0.3,0.16,8.96,9.15
289,8,南坞,39.958359,116.269665,289,6,25280,0.17,0.35,0.25,0.23,0.07,0.51,0.26,0.16,9.09,9.36
290,5,车道沟桥西,39.94592,116.28363,290,5,10406,0.14,0.42,0.24,0.2,0.15,0.31,0.39,0.15,7.67,7.7
291,6,木樨地东,39.905876,116.331305,291,4,16671,0.13,0.39,0.23,0.25,0.11,0.4,0.32,0.17,5.09,3.44
292,7,东黄城根北口,39.931395,116.400163,292,8,20727,0.13,0.38,0.26,0.23,0.12,0.42,0.32,0.14,2.44,3.08
293,7,团结湖路北口,39.931654,116.460915,293,8,23141,0.15,0.38,0.27,0.2,0.1,0.41,0.35,0.14,7.53,8.09
294,7,团结湖公园,39.925744,116.460901,294,8,22130,0.13,0.43,0.21,0.23,0.1,0.43,0.34,0.13,7.62,8.01
295,7,水碓路口南,39.920491,116.46349,295,8,21451,0.15,0.4,0.24,0.21,0.12,0.4,0.35,0.13,7.96,8.2
296,7,小庄路口北,39.916971,116.463468,296,8,22088,0.16,0.42,0.2,0.22,0.1,0.43,0.34,0.13,8.07,8.21
297,7,英家坟,39.914086,116.479668,297,8,20104,0.14,0.39,0.27,0.2,0.11,0.42,0.35,0.12,9.48,9.6
298,7,慈云寺,39.914187,116.486986,298,8,20479,0.15,0.4,0.24,0.21,0.1,0.43,0.33,0.14,10.08,10.23
299,7,东八里庄,39.914339,116.491925,299,8,22653,0.15,0.44,0.17,0.24,0.11,0.42,0.32,0.15,10.48,10.65
300,7,十里堡,39.91448,116.497044,300,8,23395,0.16,0.42,0.21,0.21,0.1,0.42,0.35,0.13,10.9,11.08
301,7,甘露园西,39.914763,116.5067,301,8,22136,0.14,0.42,0.23,0.21,0.12,0.41,0.34,0.13,11.69,11.9
302,7,甘露园东,39.915421,116.514067,302,8,23558,0.15,0.44,0.18,0.23,0.1,0.44,0.33,0.13,12.29,12.53
303,7,康家沟,39.911282,116.516152,303,8,22256,0.15,0.38,0.27,0.2,0.1,0.41,0.34,0.15,12.57,12.73
304,7,水碓路口西,39.922015,116.462025,304,8,21075,0.14,0.37,0.26,0.23,0.1,0.43,0.34,0.13,7.8,8.08
305,7,龙潭公园,39.87947,116.428381,305,8,22299,0.14,0.42,0.2,0.24,0.1,0.43,0.32,0.15,8.08,6.88
306,7,北京体育馆,39.882855,116.424304,306,8,20395,0.15,0.37,0.25,0.23,0.11,0.4,0.35,0.14,7.57,6.37
307,7,北京体育馆西,39.882647,116.417664,307,8,20122,0.14,0.39,0.27,0.2,0.11,0.42,0.34,0.13,7.28,5.96
309,6,北新桥路口北,39.940419,116.410569,309,4,15984,0.14,0.39,0.26,0.21,0.11,0.4,0.33,0.16,3.2,4.34
310,6,雍和宫,39.946319,116.410358,310,4,16026,0.13,0.41,0.21,0.25,0.12,0.43,0.3,0.15,3.29,4.71
312,6,北小街豁口,39.947913,116.416284,312,4,16989,0.13,0.4,0.25,0.22,0.1,0.42,0.32,0.16,3.83,5.21
313,6,和平里南口,39.951566,116.419099,313,4,17473,0.13,0.4,0.22,0.25,0.12,0.44,0.3,0.14,4.18,5.65
314,6,砖角楼,39.95291,116.422742,314,4,16845,0.14,0.41,0.22,0.23,0.11,0.42,0.34,0.13,4.53,5.99
315,6,东土城路,39.952884,116.426103,315,4,17998,0.14,0.39,0.22,0.25,0.11,0.41,0.32,0.16,4.79,6.22
316,8,安贞桥东,39.967405,116.405582,316,9,28561,0.14,0.41,0.24,0.21,0.09,0.4,0.35,0.16,4.24,6.21
317,8,和平西桥,39.9676,116.413098,317,9,26459,0.15,0.44,0.18,0.23,0.08,0.4,0.36,0.16,4.7,6.59
318,8,和平东桥,39.967682,116.416211,318,9,27908,0.14,0.42,0.21,0.23,0.08,0.41,0.36,0.15,4.9,6.76
319,8,和平里东街,39.963175,116.418635,319,9,26790,0.16,0.39,0.25,0.2,0.08,0.4,0.37,0.15,4.75,6.51
320,6,和平里路口南,39.955105,116.418896,320,4,16011,0.13,0.41,0.25,0.21,0.1,0.43,0.31,0.16,4.32,5.89
321,6,和平里南街,39.952725,116.418566,321,4,17765,0.12,0.37,0.3,0.21,0.11,0.44,0.29,0.16,4.19,5.7
322,6,地坛东门,39.9526,116.412929,322,4,16961,0.13,0.39,0.24,0.24,0.1,0.42,0.33,0.15,3.74,5.33
323,6,地坛南门,39.949528,116.410007,323,4,15730,0.14,0.37,0.26,0.23,0.11,0.41,0.33,0.15,3.38,4.91
324,7,东直门,39.939712,116.43149,324,4,20482,0.12,0.4,0.26,0.22,0.09,0.51,0.26,0.14,4.98,5.9
325,7,春秀路,39.939755,116.436691,325,8,21473,0.15,0.43,0.21,0.21,0.11,0.43,0.32,0.14,5.42,6.32
328,7,甜水园北里,39.928584,116.472149,328,8,21723,0.15,0.43,0.19,0.23,0.11,0.42,0.34,0.13,8.52,8.99
329,7,金台路口南,39.920353,116.471849,329,8,22858,0.15,0.43,0.22,0.2,0.1,0.4,0.35,0.15,8.66,8.92
330,7,红庙路口北,39.916843,116.471799,330,8,20300,0.14,0.39,0.26,0.21,0.1,0.42,0.35,0.13,8.75,8.92
331,7,金台路口北,39.923314,116.47214,331,8,23680,0.13,0.39,0.26,0.22,0.1,0.4,0.36,0.14,8.61,8.95
332,6,地铁和平里北街站,39.95631,116.412529,332,4,17500,0.12,0.37,0.27,0.24,0.11,0.44,0.31,0.14,3.9,5.6
333,6,和平里路口北,39.958395,116.419056,333,4,17710,0.12,0.36,0.31,0.21,0.11,0.41,0.32,0.16,4.5,6.15
334,6,南锣鼓巷,39.932145,116.398563,334,4,15139,0.12,0.39,0.28,0.21,0.11,0.41,0.32,0.16,2.28,3
335,6,地安门东,39.932132,116.392913,335,4,16782,0.13,0.38,0.24,0.25,0.11,0.44,0.31,0.14,1.83,2.58
336,8,郝家湾,39.931238,116.331202,336,8,27026,0.14,0.42,0.23,0.21,0.07,0.46,0.31,0.16,3.66,3.33
337,8,外文印刷厂,39.931227,116.316216,337,8,29602,0.15,0.38,0.24,0.23,0.08,0.48,0.29,0.15,4.92,4.54
338,8,老虎庙,39.931151,116.309391,338,8,29108,0.14,0.42,0.22,0.22,0.08,0.49,0.29,0.14,5.49,5.1
339,8,花园桥北,39.932561,116.304294,339,8,29854,0.14,0.41,0.22,0.23,0.08,0.47,0.31,0.14,5.9,5.56
340,8,紫竹桥南,39.93787,116.304365,340,8,25872,0.14,0.43,0.2,0.23,0.07,0.46,0.32,0.15,5.86,5.73
341,6,地铁芍药居站,39.976763,116.429508,341,5,16314,0.14,0.41,0.21,0.24,0.11,0.44,0.31,0.14,6.42,8.26
342,6,育慧南路南口,39.975955,116.425524,342,4,17866,0.13,0.4,0.22,0.25,0.11,0.44,0.31,0.14,6.11,7.97
343,6,对外经贸大学东门,39.979091,116.424792,343,4,15910,0.14,0.39,0.24,0.23,0.1,0.41,0.34,0.15,6.31,8.21
344,6,中国现代文学馆,39.98215,116.424231,344,5,17480,0.15,0.42,0.22,0.21,0.12,0.39,0.33,0.16,6.52,8.46
345,8,对外经贸大学,39.980654,116.418105,345,5,26423,0.14,0.38,0.26,0.22,0.06,0.53,0.24,0.17,6.06,8.03
346,8,中日医院,39.973336,116.418436,346,5,29402,0.15,0.4,0.24,0.21,0.06,0.51,0.27,0.16,5.47,7.37
347,8,和平东桥南,39.966935,116.4186,347,9,26687,0.15,0.44,0.19,0.22,0.08,0.41,0.36,0.15,5,6.82
348,6,青年沟东口,39.960777,116.417764,348,4,17037,0.14,0.41,0.21,0.24,0.1,0.42,0.32,0.16,4.54,6.26
349,6,青年沟,39.960642,116.411057,349,4,15629,0.13,0.42,0.23,0.22,0.11,0.41,0.33,0.15,4.07,5.87
350,6,青年沟西口,39.96058,116.407294,350,4,17343,0.13,0.38,0.25,0.24,0.12,0.39,0.34,0.15,3.81,5.67
351,6,小黄庄,39.960593,116.403521,351,4,17664,0.14,0.39,0.25,0.22,0.11,0.43,0.32,0.14,3.57,5.48
352,6,安定门,39.94819,116.402296,352,4,15999,0.12,0.36,0.29,0.23,0.11,0.42,0.32,0.15,2.71,4.34
353,8,和平东桥北,39.970133,116.41853,353,9,28862,0.15,0.38,0.26,0.21,0.09,0.39,0.35,0.17,5.23,7.09
354,8,惠新东桥南,39.985663,116.417864,354,5,27344,0.13,0.39,0.25,0.23,0.06,0.52,0.25,0.17,6.49,8.49
355,6,惠新东桥东,39.987336,116.419052,355,5,17584,0.15,0.41,0.2,0.24,0.11,0.41,0.32,0.16,6.7,8.7
356,6,育慧南路,39.986181,116.424751,356,5,17459,0.13,0.36,0.29,0.22,0.11,0.43,0.32,0.14,6.89,8.85
359,6,五间楼,39.850469,116.417447,359,4,15760,0.13,0.42,0.22,0.23,0.11,0.4,0.34,0.15,10.49,8.82
360,6,横七条,39.852489,116.417481,360,4,16281,0.14,0.41,0.21,0.24,0.11,0.42,0.31,0.16,10.29,8.63
361,7,刘家窑桥东,39.856665,116.420953,361,8,20322,0.14,0.4,0.25,0.21,0.11,0.39,0.35,0.15,9.97,8.39
362,7,芳星园南,39.860019,116.426961,362,8,21426,0.13,0.4,0.25,0.22,0.12,0.41,0.33,0.14,9.86,8.38
363,7,芳星园,39.86371,116.427573,363,8,21422,0.13,0.39,0.28,0.2,0.1,0.43,0.32,0.15,9.53,8.09
364,7,八里河,39.864508,116.430156,364,8,23445,0.15,0.43,0.18,0.24,0.12,0.39,0.36,0.13,9.56,8.16
365,7,左安门外,39.866189,116.432893,365,8,23864,0.14,0.42,0.22,0.22,0.1,0.41,0.34,0.15,9.52,8.18
366,7,左安门内,39.873388,116.433502,366,8,23431,0.14,0.4,0.25,0.21,0.1,0.43,0.34,0.13,8.89,7.65
367,7,龙潭湖游泳池,39.876366,116.43153,367,8,23595,0.13,0.4,0.26,0.21,0.11,0.38,0.36,0.15,8.52,7.31
368,6,龙潭湖,39.880034,116.43279,368,4,17404,0.13,0.37,0.28,0.22,0.11,0.4,0.33,0.16,8.26,7.13
369,7,光明楼,39.882119,116.434279,369,8,23348,0.14,0.42,0.23,0.21,0.1,0.42,0.35,0.13,8.16,7.09
370,6,夕照寺,39.885718,116.434098,370,4,17664,0.14,0.38,0.23,0.25,0.11,0.4,0.34,0.15,7.84,6.85
371,6,夕照寺街北口,39.889918,116.433847,371,4,16820,0.13,0.41,0.23,0.23,0.11,0.39,0.35,0.15,7.48,6.58
372,6,广渠门内,39.892404,116.431345,372,4,17164,0.13,0.37,0.26,0.24,0.12,0.41,0.31,0.16,7.14,6.26
373,6,安化楼,39.89236,116.427678,373,4,15733,0.12,0.4,0.23,0.25,0.11,0.43,0.3,0.16,6.93,5.99
374,6,培新街,39.892307,116.424342,374,4,15229,0.12,0.35,0.28,0.25,0.11,0.41,0.34,0.14,6.74,5.75
375,6,南花市大街,39.894731,116.421412,375,4,17318,0.12,0.4,0.27,0.21,0.11,0.4,0.34,0.15,6.38,5.39
376,6,羊市口,39.895824,116.414198,376,4,17634,0.14,0.38,0.26,0.22,0.12,0.4,0.34,0.14,5.9,4.81
378,7,崇文门东,39.899051,116.415769,378,8,23471,0.15,0.4,0.24,0.21,0.1,0.44,0.31,0.15,5.7,4.74
379,6,北花市大街,39.89835,116.421067,379,4,17005,0.14,0.35,0.29,0.22,0.11,0.43,0.32,0.14,6.06,5.17
380,6,小市口,39.895993,116.42328,380,4,16977,0.13,0.38,0.26,0.23,0.12,0.4,0.31,0.17,6.38,5.46
381,6,铁辘轳把,39.896127,116.428269,381,4,17613,0.14,0.39,0.24,0.23,0.11,0.41,0.34,0.14,6.66,5.83
382,6,白桥大街,39.894906,116.433068,382,4,15944,0.13,0.4,0.24,0.23,0.11,0.41,0.32,0.16,7.05,6.26
383,7,芳城园,39.864581,116.427021,383,8,21741,0.14,0.44,0.21,0.21,0.11,0.43,0.32,0.14,9.42,7.98
384,7,方庄南口,39.860377,116.425473,384,8,23175,0.16,0.37,0.26,0.21,0.1,0.41,0.34,0.15,9.77,8.27
385,6,石榴园东,39.844532,116.412102,385,4,17200,0.12,0.37,0.3,0.21,0.11,0.43,0.29,0.17,10.97,9.21
386,6,石榴园,39.845302,116.408551,386,4,15763,0.12,0.38,0.28,0.22,0.11,0.43,0.31,0.15,10.8,9.01
389,6,赵公口桥南,39.854031,116.40811,389,8,17112,0.14,0.42,0.21,0.23,0.11,0.34,0.39,0.16,9.86,8.1
390,8,赵公口桥西,39.855879,116.402514,390,8,28088,0.13,0.4,0.24,0.23,0.08,0.47,0.3,0.15,9.52,7.72
391,8,木樨园桥东,39.855896,116.398003,391,6,28853,0.16,0.35,0.26,0.23,0.06,0.51,0.29,0.14,9.43,7.58
392,8,木樨园桥北,39.859287,116.393994,392,8,26811,0.14,0.43,0.21,0.22,0.08,0.48,0.31,0.13,8.99,7.11
393,8,沙子口,39.863018,116.393803,393,8,28993,0.14,0.4,0.24,0.22,0.08,0.44,0.33,0.15,8.58,6.71
394,8,永定门内,39.872478,116.39395,394,8,27646,0.15,0.39,0.24,0.22,0.08,0.45,0.32,0.15,7.55,5.74
395,8,先农坛,39.876228,116.394041,395,8,27897,0.15,0.44,0.19,0.22,0.07,0.48,0.3,0.15,7.15,5.36
396,8,天坛西门,39.880817,116.392816,396,8,28369,0.14,0.43,0.2,0.23,0.07,0.43,0.33,0.17,6.63,4.86
397,6,珠市口南,39.888977,116.39233,397,8,15348,0.14,0.43,0.2,0.23,0.13,0.34,0.36,0.17,5.75,4.04
398,8,大栅栏,39.894837,116.394882,398,8,28614,0.14,0.38,0.26,0.22,0.07,0.49,0.28,0.16,5.2,3.64
401,7,王府井,39.906616,116.40707,401,8,20832,0.13,0.39,0.24,0.24,0.09,0.43,0.35,0.13,4.58,3.7
402,7,东单路口东,39.906803,116.414207,402,8,22655,0.13,0.39,0.28,0.2,0.12,0.42,0.32,0.14,4.97,4.26
403,7,永安里路口北,39.908976,116.444243,403,8,22035,0.15,0.42,0.2,0.23,0.11,0.43,0.34,0.12,6.9,6.67
404,7,芳草地南,39.912906,116.444246,404,8,20064,0.15,0.42,0.22,0.21,0.12,0.41,0.33,0.14,6.7,6.61
405,7,芳草地,39.917166,116.444247,405,8,21474,0.14,0.39,0.23,0.24,0.1,0.42,0.35,0.13,6.51,6.57
407,8,航天桥西,39.922986,116.301659,407,6,28167,0.14,0.38,0.25,0.23,0.07,0.48,0.29,0.16,6.33,5.61
408,8,西钓鱼台,39.922808,116.294383,408,6,27344,0.17,0.38,0.21,0.24,0.07,0.49,0.28,0.16,6.94,6.23
409,8,定慧寺东,39.923004,116.280446,409,6,26813,0.14,0.41,0.22,0.23,0.06,0.5,0.29,0.15,8.09,7.42
410,5,定慧桥东,39.923326,116.274474,410,6,11387,0.14,0.37,0.28,0.21,0.14,0.3,0.42,0.14,8.58,7.93
411,8,定慧桥北,39.925191,116.269776,411,6,29680,0.16,0.39,0.23,0.22,0.07,0.46,0.31,0.16,8.93,8.34
412,8,五路桥,39.931431,116.269129,412,6,27182,0.14,0.38,0.27,0.21,0.06,0.49,0.29,0.16,8.9,8.47
413,8,营慧寺,39.935031,116.268659,413,6,29540,0.15,0.37,0.27,0.21,0.07,0.49,0.29,0.15,8.91,8.58
414,8,四季青桥南,39.940691,116.268528,414,6,29259,0.15,0.38,0.24,0.23,0.06,0.51,0.26,0.17,8.92,8.74
415,8,广外关厢,39.888096,116.339858,415,8,25882,0.14,0.42,0.23,0.21,0.07,0.47,0.3,0.16,6.28,4.24
416,6,广安门南,39.885291,116.342303,416,8,15923,0.15,0.43,0.18,0.24,0.12,0.36,0.38,0.14,6.47,4.39
417,6,椿树馆街,39.881161,116.342428,417,8,15248,0.15,0.42,0.21,0.22,0.12,0.36,0.37,0.15,6.89,4.8
418,6,白纸坊桥南,39.875451,116.342863,418,8,17732,0.15,0.4,0.22,0.23,0.12,0.35,0.38,0.15,7.47,5.36
419,6,菜户营桥北,39.870312,116.342395,419,4,17833,0.14,0.4,0.21,0.25,0.11,0.43,0.31,0.15,8.02,5.9
420,6,菜户营桥东,39.866446,116.345988,420,4,15683,0.13,0.39,0.27,0.21,0.11,0.41,0.32,0.16,8.34,6.21
421,6,大观园,39.866698,116.351098,421,4,17599,0.12,0.35,0.32,0.21,0.1,0.44,0.31,0.15,8.2,6.07
422,6,右安门东,39.868123,116.36168,422,4,16585,0.14,0.38,0.23,0.25,0.11,0.4,0.34,0.15,7.89,5.77
423,6,开阳桥东,39.868733,116.369468,423,4,17730,0.13,0.4,0.25,0.22,0.11,0.42,0.32,0.15,7.76,5.69
424,6,陶然亭公园南门,39.869088,116.374372,424,8,17126,0.14,0.43,0.19,0.24,0.12,0.37,0.36,0.15,7.72,5.68
425,6,永定门西,39.869909,116.387522,425,8,16945,0.13,0.43,0.23,0.21,0.12,0.35,0.37,0.16,7.73,5.81
426,6,永定门东,39.870308,116.397431,426,8,16317,0.14,0.41,0.21,0.24,0.12,0.33,0.39,0.16,7.86,6.08
427,6,天坛南门,39.870528,116.405614,427,8,16264,0.14,0.43,0.19,0.24,0.14,0.33,0.36,0.17,8.05,6.38
428,7,玉蜓桥西,39.869644,116.41271,428,4,20818,0.14,0.37,0.25,0.24,0.1,0.46,0.3,0.14,8.37,6.8
429,7,芳古园北,39.86926,116.420129,429,4,22122,0.12,0.41,0.25,0.22,0.09,0.46,0.31,0.14,8.68,7.21
430,7,方庄环岛西,39.864326,116.421491,430,8,22093,0.14,0.41,0.21,0.24,0.11,0.43,0.32,0.14,9.22,7.71
431,7,肿瘤医院,39.873267,116.438684,431,4,22182,0.12,0.41,0.24,0.23,0.09,0.46,0.3,0.15,9.16,7.99
432,2,劲松南路西口,39.87838,116.440237,432,4,5116,0.14,0.38,0.27,0.21,0.21,0.21,0.44,0.14,8.8,7.74
433,7,光明桥,39.883028,116.439264,433,4,22782,0.13,0.37,0.28,0.22,0.09,0.51,0.27,0.13,8.36,7.38
434,7,广渠门,39.892045,116.43813,434,8,23225,0.15,0.38,0.26,0.21,0.11,0.42,0.33,0.14,7.58,6.79
435,7,建国门南,39.903061,116.430062,435,8,22590,0.13,0.39,0.25,0.23,0.11,0.4,0.34,0.15,6.26,5.67
436,7,北京站东街,39.903779,116.428178,436,8,23179,0.15,0.42,0.21,0.22,0.1,0.42,0.34,0.14,6.08,5.49
437,7,北京站东,39.903674,116.424311,437,8,23433,0.13,0.39,0.28,0.2,0.1,0.43,0.34,0.13,5.84,5.18
438,7,芳古园,39.864344,116.419539,438,4,21870,0.12,0.38,0.27,0.23,0.09,0.49,0.28,0.14,9.15,7.61
439,6,蒲黄榆,39.865426,116.415583,439,8,15062,0.14,0.39,0.24,0.23,0.12,0.37,0.35,0.16,8.9,7.32
440,6,开阳桥西,39.869505,116.36729,440,4,15524,0.14,0.42,0.19,0.25,0.1,0.42,0.32,0.16,7.69,5.6
441,6,右安门西,39.868661,116.355659,441,8,17207,0.14,0.38,0.26,0.22,0.13,0.35,0.36,0.16,7.91,5.78
442,6,大观园西,39.868428,116.345019,442,6,16902,0.14,0.4,0.21,0.25,0.12,0.36,0.35,0.17,8.15,6.03
443,6,白纸坊桥北,39.877509,116.34415,443,4,17990,0.12,0.38,0.26,0.24,0.11,0.44,0.3,0.15,7.22,5.11
444,8,莲花池,39.888741,116.315862,444,6,29892,0.16,0.38,0.23,0.23,0.07,0.5,0.27,0.16,7.38,5.59
445,5,牡丹园西,39.975154,116.361266,445,5,11668,0.14,0.39,0.23,0.24,0.13,0.35,0.37,0.15,4.2,6.17
446,8,牡丹园,39.974095,116.363625,446,8,26610,0.14,0.44,0.22,0.2,0.08,0.46,0.31,0.15,4.04,6.04
447,8,北太平桥北,39.969805,116.363733,447,8,25645,0.15,0.39,0.25,0.21,0.08,0.46,0.31,0.15,3.57,5.56
448,6,北太平桥东,39.966323,116.366549,448,5,16409,0.15,0.37,0.24,0.24,0.12,0.4,0.33,0.15,3.14,5.17
449,8,马甸桥南,39.964224,116.373614,449,9,27864,0.15,0.39,0.25,0.21,0.08,0.45,0.32,0.15,2.86,4.96
450,8,德外关厢,39.958115,116.373369,450,9,28428,0.15,0.44,0.2,0.21,0.09,0.44,0.33,0.14,2.18,4.29
451,6,黄寺大街西口,39.96143,116.3748,451,4,17320,0.14,0.39,0.24,0.23,0.11,0.41,0.32,0.16,2.55,4.67
452,6,阳光丽景小区,39.961542,116.379925,452,4,15854,0.13,0.38,0.26,0.23,0.11,0.43,0.33,0.13,2.63,4.76
453,6,黄寺,39.961626,116.383013,453,4,17163,0.13,0.36,0.28,0.23,0.11,0.41,0.32,0.16,2.71,4.83
454,6,黄寺大街东口,39.961735,116.386881,454,4,16420,0.13,0.37,0.26,0.24,0.11,0.42,0.32,0.15,2.84,4.95
455,6,和平里路口东,39.957967,116.420288,455,4,17894,0.14,0.35,0.27,0.24,0.1,0.44,0.32,0.14,4.57,6.19
456,6,东土城路南口,39.951124,116.426201,456,4,17607,0.13,0.4,0.24,0.23,0.12,0.43,0.31,0.14,4.74,6.11
457,6,北官厅,39.948553,116.423884,457,4,16723,0.13,0.41,0.25,0.21,0.11,0.42,0.31,0.16,4.47,5.78
458,6,东直门北,39.943466,116.427217,458,4,16413,0.14,0.4,0.24,0.22,0.11,0.44,0.3,0.15,4.65,5.74
459,6,胡家园南,39.941304,116.438497,459,4,15160,0.13,0.4,0.24,0.23,0.12,0.41,0.32,0.15,5.58,6.52
460,6,胡家园北,39.945629,116.437911,460,4,16809,0.14,0.39,0.24,0.23,0.1,0.39,0.35,0.16,5.58,6.67
461,6,香河园桥,39.948215,116.435953,461,4,16504,0.12,0.37,0.29,0.22,0.11,0.38,0.34,0.17,5.47,6.65
462,6,左家庄桥西,39.947955,116.438824,462,4,15079,0.14,0.39,0.22,0.25,0.11,0.41,0.32,0.16,5.7,6.85
463,6,马甸桥西,39.96687,116.369235,463,5,15644,0.14,0.39,0.24,0.23,0.11,0.42,0.32,0.15,3.17,5.23
464,8,北太平桥西,39.966655,116.361377,464,9,27128,0.16,0.46,0.15,0.23,0.08,0.44,0.34,0.14,3.29,5.23
465,8,花园路南,39.970846,116.359523,465,9,26410,0.15,0.43,0.18,0.24,0.08,0.41,0.34,0.17,3.78,5.71
466,6,对外经贸大学北,39.982075,116.41658,466,5,16958,0.15,0.39,0.21,0.25,0.11,0.39,0.34,0.16,6.1,8.09
467,6,惠新里,39.982054,116.413576,467,5,15002,0.14,0.38,0.24,0.24,0.11,0.44,0.3,0.15,5.95,7.96
468,6,惠新西街,39.980318,116.411046,468,4,16817,0.12,0.37,0.29,0.22,0.11,0.41,0.34,0.14,5.66,7.69
469,6,惠新西街南口,39.974958,116.4113,469,4,16538,0.13,0.39,0.27,0.21,0.11,0.41,0.31,0.17,5.2,7.18
470,6,和平西桥北,39.969889,116.411546,470,4,15866,0.13,0.36,0.28,0.23,0.11,0.4,0.33,0.16,4.79,6.72
471,6,和平西桥南,39.963249,116.411866,471,4,15812,0.14,0.37,0.24,0.25,0.12,0.4,0.32,0.16,4.3,6.14
472,6,和平里西街,39.959529,116.412051,472,4,16709,0.14,0.41,0.22,0.23,0.11,0.41,0.33,0.15,4.06,5.83
473,6,和平里中街,39.95544,116.412399,473,4,15526,0.14,0.41,0.24,0.21,0.1,0.41,0.34,0.15,3.84,5.52
474,6,和平里中街西口,39.955559,116.403401,474,4,17251,0.13,0.41,0.21,0.25,0.11,0.42,0.33,0.14,3.2,5.02
475,6,地坛北门,39.955726,116.409776,475,4,15618,0.12,0.41,0.23,0.24,0.11,0.43,0.31,0.15,3.67,5.39
476,8,望和桥,39.987495,116.431173,476,5,26371,0.13,0.4,0.26,0.21,0.06,0.55,0.26,0.13,7.36,9.29
477,7,石各庄,39.940236,116.552735,477,8,22210,0.16,0.43,0.19,0.22,0.11,0.4,0.36,0.13,15.32,15.97
478,7,石各庄西,39.940544,116.542151,478,8,20702,0.13,0.41,0.23,0.23,0.11,0.44,0.32,0.13,14.41,15.09
479,7,平房东口,39.940955,116.536676,479,8,20678,0.13,0.43,0.22,0.22,0.11,0.42,0.35,0.12,13.95,14.63
480,7,黄杉木店路北口,39.937813,116.523878,480,8,23601,0.14,0.4,0.23,0.23,0.1,0.4,0.35,0.15,12.86,13.5
481,7,黄杉木店路,39.935313,116.523908,481,8,21098,0.13,0.43,0.22,0.22,0.11,0.43,0.32,0.14,12.86,13.46
482,7,亮马厂西口,39.926333,116.523568,482,8,21454,0.13,0.4,0.26,0.21,0.11,0.44,0.33,0.12,12.9,13.35
483,7,四季星河南街,39.92461,116.518692,483,8,20753,0.16,0.37,0.24,0.23,0.11,0.41,0.35,0.13,12.51,12.92
484,7,青年路小区,39.924639,116.514838,484,8,23686,0.15,0.42,0.21,0.22,0.1,0.41,0.35,0.14,12.18,12.59
485,7,青年路口西,39.922012,116.509168,485,8,23317,0.15,0.41,0.22,0.22,0.1,0.44,0.32,0.14,11.75,12.1
486,7,十里堡北里,39.921911,116.498057,486,8,20152,0.13,0.41,0.25,0.21,0.1,0.42,0.34,0.14,10.81,11.15
487,7,八里庄南里,39.921838,116.492867,487,8,22995,0.14,0.42,0.23,0.21,0.1,0.43,0.34,0.13,10.38,10.71
488,7,红领巾公园,39.921781,116.48829,488,8,21713,0.14,0.44,0.19,0.23,0.11,0.4,0.35,0.14,10,10.32
489,7,延静里,39.92171,116.47769,489,8,22106,0.14,0.42,0.23,0.21,0.11,0.43,0.33,0.13,9.11,9.42
490,7,金台路口东,39.921699,116.473977,490,8,20955,0.15,0.43,0.18,0.24,0.11,0.42,0.33,0.14,8.8,9.1
491,7,金台路口西,39.921832,116.468337,491,8,22084,0.15,0.43,0.22,0.2,0.11,0.42,0.34,0.13,8.33,8.62
492,7,水碓子,39.92187,116.466952,492,8,22913,0.14,0.43,0.2,0.23,0.11,0.41,0.36,0.12,8.21,8.5
493,7,东大桥东站,39.922073,116.45408,493,8,23075,0.14,0.42,0.22,0.22,0.1,0.4,0.37,0.13,7.14,7.4
494,7,东大桥,39.922119,116.447841,494,8,22114,0.14,0.37,0.28,0.21,0.1,0.43,0.34,0.13,6.63,6.87
495,7,东大桥路口南,39.919936,116.444102,495,8,21711,0.15,0.38,0.24,0.23,0.1,0.45,0.32,0.13,6.4,6.55
496,7,北京站前街,39.90505,116.420945,496,8,20812,0.14,0.4,0.22,0.24,0.11,0.41,0.35,0.13,5.52,4.86
497,7,呼家楼北街小区,39.921926,116.456999,497,8,20132,0.14,0.42,0.21,0.23,0.09,0.42,0.35,0.14,7.39,7.65
498,7,平房,39.940269,116.526355,498,8,23611,0.14,0.37,0.26,0.23,0.1,0.4,0.36,0.14,13.07,13.75
499,6,肖村桥北,39.835364,116.440914,499,4,16463,0.13,0.42,0.21,0.24,0.11,0.43,0.31,0.15,12.85,11.3
500,6,郭家村南,39.837813,116.440887,500,4,16948,0.12,0.38,0.28,0.22,0.1,0.44,0.31,0.15,12.6,11.07
501,6,郭家村,39.842023,116.440933,501,4,15285,0.12,0.38,0.26,0.24,0.1,0.42,0.33,0.15,12.19,10.69
502,6,丰台苇子坑,39.844599,116.436823,502,4,15560,0.13,0.4,0.23,0.24,0.12,0.43,0.3,0.15,11.77,10.26
503,6,方庄南路南口,39.846319,116.432936,503,4,15234,0.13,0.39,0.24,0.24,0.11,0.42,0.31,0.16,11.45,9.91
504,6,方庄南路,39.849658,116.432829,504,4,16339,0.13,0.37,0.28,0.22,0.12,0.41,0.32,0.15,11.12,9.6
505,6,方庄桥南,39.853708,116.432684,505,4,15794,0.14,0.37,0.28,0.21,0.1,0.4,0.34,0.16,10.71,9.23
506,8,方庄桥西,39.8578,116.430889,506,8,27058,0.15,0.41,0.24,0.2,0.08,0.47,0.31,0.14,10.24,8.78
507,7,方庄环岛南,39.863386,116.424425,507,8,20792,0.15,0.38,0.25,0.22,0.11,0.4,0.35,0.14,9.43,7.95
508,7,蒲方路西口,39.864563,116.417187,508,4,20702,0.13,0.37,0.26,0.24,0.09,0.5,0.28,0.13,9.04,7.48
509,6,东侧路,39.874305,116.415081,509,8,16067,0.15,0.39,0.23,0.23,0.13,0.33,0.4,0.14,7.99,6.5
510,6,天坛体育场,39.880395,116.414825,510,8,17375,0.14,0.43,0.19,0.24,0.11,0.38,0.36,0.15,7.38,5.97
511,7,花市路口南,39.894902,116.412586,511,8,21885,0.13,0.39,0.25,0.23,0.11,0.44,0.31,0.14,5.9,4.76
512,7,东单路口南,39.906091,116.411937,512,8,22071,0.15,0.37,0.27,0.21,0.1,0.41,0.35,0.14,4.89,4.1
513,8,厂桥路口南,39.929456,116.373557,513,9,29861,0.15,0.43,0.19,0.23,0.08,0.41,0.34,0.17,1.01,1.19
514,8,北京三十九中学,39.924659,116.370976,514,9,26338,0.15,0.44,0.18,0.23,0.08,0.43,0.33,0.16,1.55,0.62
515,2,东铁营桥东,39.857085,116.427362,515,4,5963,0.13,0.35,0.33,0.19,0.22,0.22,0.43,0.13,10.17,8.66
516,6,红寺桥,39.831153,116.435171,516,4,15220,0.14,0.38,0.24,0.24,0.12,0.42,0.32,0.14,13.06,11.44
517,8,北京西站,39.894997,116.317717,517,6,26428,0.16,0.38,0.24,0.22,0.06,0.5,0.28,0.16,6.76,5.05
518,6,白云桥西,39.895918,116.332902,518,8,15367,0.14,0.41,0.21,0.24,0.11,0.36,0.37,0.16,5.85,3.96
519,6,白云观,39.898902,116.336095,519,4,17332,0.14,0.37,0.27,0.22,0.1,0.42,0.32,0.16,5.42,3.54
520,6,展览路口北,39.923757,116.338187,520,4,17011,0.13,0.37,0.25,0.25,0.11,0.43,0.3,0.16,3.4,2.52
521,8,国家图书馆,39.943343,116.318928,521,5,26874,0.15,0.38,0.25,0.22,0.06,0.56,0.24,0.14,4.65,4.88
522,8,中央民族大学,39.946733,116.318549,522,5,26591,0.16,0.38,0.25,0.21,0.06,0.53,0.26,0.15,4.74,5.12
525,5,大柳树北站,39.952502,116.329613,525,5,10119,0.13,0.37,0.28,0.22,0.15,0.33,0.36,0.16,4.02,4.85
526,5,皂君东里,39.958383,116.328972,526,5,11994,0.13,0.37,0.26,0.24,0.15,0.33,0.38,0.14,4.36,5.39
527,5,联想桥南,39.963354,116.328404,527,5,10861,0.14,0.37,0.28,0.21,0.13,0.32,0.4,0.15,4.71,5.86
528,5,白塔庵南,39.970594,116.327924,528,5,10950,0.14,0.41,0.25,0.2,0.15,0.33,0.37,0.15,5.25,6.57
529,5,白塔庵,39.974335,116.327674,529,5,10215,0.13,0.37,0.27,0.23,0.13,0.32,0.38,0.17,5.56,6.94
530,5,白塔庵北,39.977545,116.327564,530,5,10932,0.13,0.41,0.26,0.2,0.15,0.32,0.38,0.15,5.82,7.25
531,5,保福寺桥南,39.981945,116.327244,531,5,10546,0.13,0.42,0.23,0.22,0.15,0.32,0.37,0.16,6.21,7.7
532,5,保福寺桥北,39.985705,116.327062,532,5,11424,0.14,0.4,0.22,0.24,0.16,0.31,0.37,0.16,6.55,8.09
533,5,东升园,39.988885,116.326994,533,5,10598,0.13,0.42,0.25,0.2,0.14,0.34,0.37,0.15,6.84,8.41
534,5,清华园,39.991405,116.322095,534,5,11783,0.14,0.36,0.28,0.22,0.14,0.33,0.37,0.16,7.31,8.84
535,5,蓝旗营,39.991178,116.317346,535,5,10961,0.14,0.41,0.24,0.21,0.14,0.35,0.36,0.15,7.54,9
536,5,中关园北站,39.994069,116.309423,536,5,11748,0.13,0.38,0.27,0.22,0.15,0.33,0.36,0.16,8.22,9.61
537,5,清华大学西门,39.995799,116.309253,537,5,11542,0.14,0.39,0.24,0.23,0.13,0.35,0.36,0.16,8.38,9.79
538,5,圆明园南门,39.998574,116.306709,538,5,10067,0.13,0.37,0.26,0.24,0.14,0.34,0.37,0.15,8.75,10.16
542,6,西城三里河,39.912682,116.330436,542,4,16612,0.13,0.4,0.24,0.23,0.1,0.42,0.31,0.17,4.63,3.24
543,6,三里河东口,39.912649,116.33737,543,4,16732,0.13,0.38,0.28,0.21,0.12,0.42,0.3,0.16,4.19,2.68
544,6,二七剧场路北口,39.912613,116.340962,544,4,16109,0.13,0.35,0.28,0.24,0.11,0.45,0.3,0.14,3.97,2.39
545,6,儿童医院路口西,39.912554,116.345463,545,4,15679,0.14,0.38,0.23,0.25,0.12,0.4,0.33,0.15,3.73,2.03
546,6,月坛公园,39.917512,116.347165,546,4,17570,0.13,0.4,0.23,0.24,0.12,0.39,0.34,0.15,3.22,1.74
547,8,厂桥路口西,39.931404,116.371817,547,9,26305,0.14,0.44,0.2,0.22,0.09,0.39,0.36,0.16,0.8,1.34
548,6,国子监,39.944629,116.410408,548,4,17872,0.13,0.4,0.24,0.23,0.11,0.44,0.3,0.15,3.25,4.59
549,6,惠新东桥北,39.989123,116.417927,549,5,16854,0.15,0.43,0.19,0.23,0.11,0.42,0.33,0.14,6.8,8.83
550,6,小营东路,39.992213,116.419713,550,5,16429,0.13,0.37,0.27,0.23,0.11,0.41,0.33,0.15,7.17,9.2
551,6,世纪村,39.992211,116.424991,551,5,15159,0.14,0.39,0.23,0.24,0.11,0.4,0.32,0.17,7.43,9.43
552,6,育慧东路,39.992218,116.42998,552,5,17154,0.14,0.41,0.21,0.24,0.11,0.4,0.33,0.16,7.69,9.66
553,6,姜庄湖,39.995169,116.431013,553,5,15690,0.15,0.41,0.21,0.23,0.11,0.41,0.32,0.16,8,9.98
554,6,小营公交场站,39.995963,116.427264,554,5,15492,0.13,0.41,0.24,0.22,0.12,0.41,0.32,0.15,7.88,9.89
555,5,南礼士路北口,39.921122,116.346899,555,5,11243,0.14,0.38,0.26,0.22,0.12,0.34,0.39,0.15,2.95,1.75
556,8,七圣南路,39.960621,116.432437,556,9,26401,0.14,0.43,0.19,0.24,0.09,0.4,0.37,0.14,5.62,7.17
557,8,七圣路南口,39.962258,116.429947,557,9,28019,0.13,0.42,0.23,0.22,0.08,0.42,0.34,0.16,5.52,7.12
558,8,光熙门北里,39.963798,116.429658,558,9,28232,0.14,0.39,0.24,0.23,0.09,0.45,0.32,0.14,5.58,7.22
559,8,七圣路北口,39.966518,116.429555,559,9,26744,0.15,0.39,0.23,0.23,0.08,0.42,0.35,0.15,5.73,7.42
560,8,西坝河,39.966161,116.433067,560,9,27924,0.14,0.44,0.2,0.22,0.09,0.4,0.34,0.17,5.97,7.61
561,8,静安庄西,39.964088,116.437063,561,9,28121,0.14,0.44,0.2,0.22,0.09,0.4,0.37,0.14,6.15,7.72
562,8,西坝河北里,39.968711,116.434488,562,9,29484,0.14,0.43,0.2,0.23,0.08,0.41,0.36,0.15,6.22,7.89
563,8,西坝河路,39.972819,116.436687,563,9,28076,0.15,0.45,0.2,0.2,0.09,0.4,0.35,0.16,6.63,8.35
564,6,地铁太阳宫站,39.971984,116.442006,564,5,17924,0.15,0.4,0.22,0.23,0.1,0.45,0.3,0.15,6.95,8.61
566,8,望京桥北,39.983868,116.451015,566,5,28012,0.13,0.4,0.27,0.2,0.06,0.52,0.25,0.17,8.34,10.08
567,8,花家地西里西站,39.98761,116.451836,567,5,26621,0.15,0.41,0.22,0.22,0.06,0.52,0.25,0.17,8.65,10.43
569,8,花家地西里,39.987401,116.458863,569,5,28244,0.14,0.38,0.25,0.23,0.06,0.54,0.26,0.14,9.11,10.83
570,8,大西洋新城南门,39.989416,116.462095,570,5,27956,0.15,0.39,0.23,0.23,0.06,0.52,0.26,0.16,9.46,11.19
571,6,大西洋新城东门,39.994444,116.462075,571,5,17475,0.13,0.42,0.21,0.24,0.12,0.43,0.3,0.15,9.81,11.58
572,6,侯庄路口南,39.999643,116.461844,572,5,16556,0.15,0.39,0.24,0.22,0.1,0.4,0.34,0.16,10.17,11.99
573,8,望京花园西区,40.005083,116.461622,573,7,28959,0.15,0.4,0.23,0.22,0.07,0.5,0.28,0.15,10.57,12.43
574,8,利泽西街东口,40.007328,116.459877,574,7,29065,0.16,0.41,0.19,0.24,0.06,0.49,0.29,0.16,10.64,12.52
575,8,东湖,40.007053,116.453427,575,7,26967,0.16,0.37,0.24,0.23,0.07,0.5,0.28,0.15,10.25,12.16
576,8,太阳宫桥,39.96834,116.425505,576,9,28538,0.14,0.45,0.18,0.23,0.08,0.42,0.34,0.16,5.56,7.33
577,3,望京花园西区北门,40.007302,116.465105,577,3,5110,0.14,0.33,0.31,0.22,0.19,0.28,0.33,0.2,10.95,12.81
578,3,望京花园东区北门,40.007335,116.470142,578,3,5432,0.15,0.35,0.25,0.25,0.19,0.28,0.34,0.19,11.27,13.09
579,3,望京花园东区,40.005981,116.472208,579,3,5319,0.14,0.33,0.29,0.24,0.19,0.3,0.35,0.16,11.3,13.1
580,3,望京东园,40.002251,116.472402,580,3,5959,0.16,0.33,0.28,0.23,0.19,0.3,0.34,0.17,11.04,12.81
581,3,望京西园三区北门,40.000674,116.469129,581,3,5208,0.16,0.33,0.27,0.24,0.17,0.31,0.31,0.21,10.71,12.49
582,8,望京街西口,39.997463,116.46701,582,5,27144,0.15,0.43,0.22,0.2,0.06,0.56,0.23,0.15,10.35,12.11
583,8,望京西园四区,39.994541,116.467553,583,5,28887,0.14,0.39,0.24,0.23,0.06,0.56,0.24,0.14,10.18,11.92
584,8,地铁阜通站,39.990704,116.46497,584,5,26122,0.13,0.41,0.22,0.24,0.06,0.54,0.26,0.14,9.75,11.46
585,6,望花路,39.987154,116.465377,585,4,16341,0.14,0.41,0.21,0.24,0.11,0.42,0.34,0.13,9.55,11.22
586,6,望花路西口,39.984207,116.462126,586,4,15648,0.14,0.41,0.2,0.25,0.12,0.4,0.33,0.15,9.13,10.8
587,6,花家地南街,39.983732,116.458903,587,4,17386,0.12,0.38,0.25,0.25,0.1,0.43,0.33,0.14,8.88,10.56
588,6,阜通西大街西口,39.984093,116.454212,588,4,15146,0.14,0.36,0.27,0.23,0.12,0.42,0.32,0.14,8.57,10.29
590,6,西坝河东里,39.967464,116.438922,590,4,16961,0.13,0.39,0.27,0.21,0.1,0.39,0.34,0.17,6.47,8.08
591,6,曙光里,39.966134,116.445752,591,4,17572,0.14,0.4,0.23,0.23,0.11,0.39,0.35,0.15,6.91,8.44
592,6,曙光里南口,39.963783,116.443082,592,4,15660,0.12,0.4,0.26,0.22,0.12,0.42,0.32,0.14,6.59,8.1
593,6,静安东街,39.958068,116.442686,593,4,16652,0.12,0.38,0.29,0.21,0.11,0.42,0.34,0.13,6.32,7.71
594,6,左家庄北里,39.956435,116.438727,594,4,17962,0.12,0.4,0.26,0.22,0.11,0.42,0.31,0.16,5.94,7.32
595,6,静安庄,39.962173,116.439944,595,4,16110,0.14,0.42,0.2,0.24,0.1,0.41,0.33,0.16,6.28,7.78
596,6,开阳桥北,39.872654,116.368309,596,4,16482,0.14,0.4,0.25,0.21,0.12,0.39,0.34,0.15,7.33,5.25
597,6,自新路口北,39.878723,116.368278,597,4,17446,0.14,0.42,0.22,0.22,0.12,0.44,0.29,0.15,6.66,4.57
598,6,南横街路口西,39.881945,116.367099,598,4,17238,0.13,0.37,0.27,0.23,0.12,0.41,0.33,0.14,6.31,4.21
599,6,教子胡同南口,39.881981,116.361777,599,4,15370,0.12,0.37,0.29,0.22,0.1,0.43,0.32,0.15,6.36,4.24
600,6,牛街西里,39.881998,116.356665,600,4,15505,0.14,0.41,0.22,0.23,0.11,0.43,0.32,0.14,6.44,4.31
601,6,白广路,39.882013,116.353681,601,4,16191,0.13,0.36,0.26,0.25,0.11,0.4,0.34,0.15,6.5,4.36
602,6,枣林前街路口北,39.883744,116.352747,602,4,16103,0.14,0.4,0.22,0.24,0.1,0.44,0.31,0.15,6.33,4.2
603,6,白广路北口,39.886583,116.35258,603,4,16486,0.12,0.41,0.22,0.25,0.11,0.43,0.3,0.16,6.03,3.91
604,8,六里桥东,39.885729,116.309498,604,6,29909,0.17,0.38,0.21,0.24,0.06,0.51,0.27,0.16,7.99,6.22
605,8,六里桥西,39.881964,116.300674,605,6,28173,0.16,0.4,0.23,0.21,0.07,0.49,0.29,0.15,8.81,7.07
606,5,地铁六里桥站西,39.879783,116.29471,606,6,11171,0.15,0.37,0.28,0.2,0.14,0.28,0.42,0.16,9.35,7.63
607,5,小井桥东,39.878986,116.290146,607,6,11870,0.17,0.37,0.25,0.21,0.13,0.29,0.42,0.16,9.69,8
608,5,小井,39.874766,116.280424,608,6,10253,0.15,0.36,0.25,0.24,0.15,0.31,0.39,0.15,10.62,8.95
609,5,丰台路口东,39.87292,116.275652,609,6,10913,0.15,0.41,0.21,0.23,0.14,0.28,0.42,0.16,11.06,9.4
610,5,丰台路口西,39.869861,116.268638,610,6,10407,0.15,0.36,0.28,0.21,0.15,0.27,0.42,0.16,11.73,10.09
611,5,丰体时代花园,39.866664,116.264047,611,6,10580,0.15,0.38,0.25,0.22,0.14,0.29,0.41,0.16,12.26,10.61
612,5,大井,39.863737,116.260031,612,6,10949,0.14,0.41,0.23,0.22,0.15,0.3,0.41,0.14,12.73,11.08
613,5,五里店东站,39.861272,116.255202,613,6,10163,0.16,0.36,0.28,0.2,0.13,0.28,0.42,0.17,13.22,11.57
614,5,五里店,39.858592,116.249078,614,6,10423,0.16,0.35,0.27,0.22,0.16,0.27,0.42,0.15,13.82,12.17
615,5,五里店西站,39.855258,116.239985,615,6,11600,0.16,0.35,0.28,0.21,0.14,0.29,0.42,0.15,14.65,13.02
616,8,西道口,39.853315,116.231587,616,6,29989,0.15,0.4,0.23,0.22,0.07,0.48,0.28,0.17,15.34,13.74
617,8,抗战雕塑园,39.846717,116.226755,617,6,26448,0.17,0.38,0.22,0.23,0.07,0.49,0.29,0.15,16.13,14.49
618,8,晓月苑一里,39.841004,116.231008,618,6,28962,0.17,0.41,0.18,0.24,0.07,0.49,0.28,0.16,16.26,14.56
619,8,晓月苑二里,39.837239,116.232153,619,6,27892,0.14,0.4,0.23,0.23,0.07,0.46,0.3,0.17,16.47,14.74
620,8,晓月苑小区,39.835075,116.233441,620,6,26483,0.16,0.38,0.25,0.21,0.06,0.5,0.29,0.15,16.56,14.81
621,8,新月家园,39.845028,116.227739,621,6,26163,0.15,0.38,0.25,0.22,0.07,0.51,0.28,0.14,16.18,14.53
622,5,小井路口东,39.877606,116.290047,622,6,10004,0.14,0.37,0.28,0.21,0.14,0.29,0.42,0.15,9.8,8.09
623,6,枣林前街,39.881873,116.353621,623,4,15117,0.14,0.41,0.23,0.22,0.12,0.44,0.29,0.15,6.51,4.38
624,8,公主坟南,39.900583,116.303937,624,6,28619,0.15,0.4,0.24,0.21,0.06,0.51,0.29,0.14,7.25,5.81
625,8,六里桥北里,39.888963,116.30396,625,6,25242,0.15,0.36,0.27,0.22,0.07,0.49,0.28,0.16,8.07,6.4
626,6,丰台太平桥,39.88166,116.311413,626,4,16413,0.13,0.38,0.28,0.21,0.11,0.42,0.32,0.15,8.22,6.38
627,6,华源一里,39.87927,116.311513,627,4,15954,0.12,0.41,0.23,0.24,0.11,0.39,0.34,0.16,8.42,6.56
628,6,首科花园南门,39.873878,116.312651,628,4,16700,0.12,0.36,0.28,0.24,0.11,0.42,0.31,0.16,8.84,6.92
629,6,东局,39.873114,116.314876,629,4,16785,0.14,0.4,0.23,0.23,0.12,0.39,0.32,0.17,8.8,6.86
630,6,东局南,39.868724,116.314957,630,4,17413,0.14,0.36,0.28,0.22,0.11,0.43,0.31,0.15,9.21,7.23
631,5,丽泽桥东,39.866432,116.315655,631,6,10543,0.15,0.35,0.3,0.2,0.15,0.28,0.43,0.14,9.39,7.4
632,6,三路居,39.866536,116.319237,632,4,15385,0.13,0.39,0.27,0.21,0.12,0.43,0.3,0.15,9.23,7.21
633,6,中国戏曲学院,39.866522,116.326271,633,4,16388,0.14,0.35,0.28,0.23,0.11,0.4,0.34,0.15,8.95,6.89
634,6,菜户营西站,39.866536,116.332866,634,4,15674,0.13,0.35,0.29,0.23,0.1,0.43,0.31,0.16,8.71,6.62
635,6,玉泉营桥北,39.856065,116.341089,635,4,16016,0.13,0.4,0.23,0.24,0.12,0.43,0.29,0.16,9.56,7.44
636,8,玉泉营桥东,39.850484,116.347736,636,6,28797,0.16,0.37,0.23,0.24,0.07,0.49,0.29,0.15,10.02,7.89
637,8,草桥,39.852442,116.355361,637,6,28142,0.15,0.35,0.27,0.23,0.06,0.51,0.29,0.14,9.69,7.56
638,6,嘉园一里,39.849436,116.359345,638,4,17629,0.14,0.37,0.28,0.21,0.11,0.41,0.32,0.16,9.97,7.86
639,6,马家堡小区,39.849288,116.366105,639,4,16736,0.13,0.42,0.24,0.21,0.1,0.43,0.32,0.15,9.94,7.85
640,6,角门北路,39.849181,116.371807,640,4,16479,0.14,0.38,0.23,0.25,0.12,0.4,0.31,0.17,9.93,7.87
642,6,首科花园,39.877149,116.311673,642,4,17898,0.14,0.41,0.23,0.22,0.11,0.42,0.33,0.14,8.6,6.71
643,6,太平桥路北口,39.884591,116.310794,643,4,15944,0.13,0.38,0.27,0.22,0.11,0.41,0.34,0.14,8.01,6.21
644,8,六里桥北,39.887332,116.304537,644,6,29317,0.16,0.41,0.21,0.22,0.06,0.53,0.27,0.14,8.16,6.46
645,8,莲花桥,39.895342,116.304446,645,6,27462,0.17,0.38,0.24,0.21,0.06,0.5,0.29,0.15,7.57,6.01
646,5,二里庄,39.997531,116.358637,646,5,11588,0.14,0.41,0.25,0.2,0.14,0.33,0.37,0.16,6.68,8.67
647,5,二里庄南口,39.99355,116.358814,647,5,11995,0.14,0.37,0.28,0.21,0.15,0.3,0.39,0.16,6.24,8.23
648,5,志新北里,39.991865,116.362816,648,5,11401,0.14,0.38,0.27,0.21,0.13,0.34,0.38,0.15,6,8.02
649,5,志新桥北,39.986975,116.363072,649,5,10381,0.15,0.38,0.25,0.22,0.14,0.32,0.38,0.16,5.46,7.47
650,5,志新桥南,39.981955,116.363303,650,5,11140,0.15,0.43,0.18,0.24,0.14,0.35,0.36,0.15,4.9,6.91
651,5,牡丹园北,39.977915,116.363518,651,5,10024,0.14,0.43,0.22,0.21,0.14,0.32,0.39,0.15,4.46,6.46
652,6,北太平桥南,39.963925,116.364098,652,5,15991,0.14,0.42,0.22,0.22,0.1,0.42,0.32,0.16,2.93,4.91
653,8,铁狮子坟,39.960955,116.364379,653,8,28666,0.15,0.41,0.2,0.24,0.08,0.47,0.29,0.16,2.61,4.58
654,8,北师大路口南,39.955804,116.364859,654,8,27113,0.14,0.39,0.25,0.22,0.07,0.47,0.3,0.16,2.05,4
655,8,小西天,39.952134,116.365185,655,8,29957,0.15,0.38,0.25,0.22,0.07,0.49,0.3,0.14,1.66,3.59
656,6,积水潭桥东,39.947201,116.3677,656,4,16767,0.13,0.37,0.26,0.24,0.11,0.4,0.34,0.15,1.07,3.04
657,6,德胜门南站,39.945956,116.375637,657,4,15873,0.13,0.35,0.3,0.22,0.11,0.41,0.32,0.16,0.86,2.99
658,6,果子市,39.944912,116.377739,658,4,17068,0.14,0.36,0.28,0.22,0.11,0.42,0.31,0.16,0.82,2.93
659,6,德内甘水桥,39.942166,116.382797,659,4,17788,0.14,0.4,0.23,0.23,0.11,0.42,0.33,0.14,0.92,2.81
660,6,铸钟厂,39.939741,116.386051,660,4,15247,0.13,0.4,0.24,0.23,0.12,0.42,0.31,0.15,1.11,2.73
661,7,农业展览馆,39.93749,116.455281,661,8,23315,0.15,0.37,0.25,0.23,0.12,0.41,0.34,0.13,7.01,7.75
662,7,甘露园,39.915032,116.510203,662,8,22191,0.14,0.39,0.24,0.23,0.1,0.44,0.33,0.13,11.98,12.2
663,8,德胜门,39.948095,116.373942,663,9,25081,0.15,0.4,0.23,0.22,0.09,0.41,0.34,0.16,1.07,3.19
664,8,冰窖口胡同西口,39.949662,116.367061,664,9,29208,0.14,0.38,0.25,0.23,0.09,0.44,0.32,0.15,1.34,3.32
665,6,磁器口西,39.891671,116.410325,665,4,15856,0.14,0.4,0.22,0.24,0.11,0.45,0.3,0.14,6.1,4.83
666,6,水道子,39.891517,116.406752,666,4,16954,0.14,0.4,0.23,0.23,0.12,0.4,0.32,0.16,5.96,4.61
667,6,桥湾,39.891428,116.404,667,4,16284,0.12,0.41,0.25,0.22,0.11,0.42,0.31,0.16,5.86,4.45
668,6,东城三里河,39.891271,116.400249,668,4,15528,0.13,0.4,0.25,0.22,0.11,0.39,0.34,0.16,5.74,4.24
669,6,前门西,39.89889,116.388308,669,8,17712,0.15,0.44,0.16,0.25,0.13,0.37,0.35,0.15,4.59,2.94
670,6,和平门东,39.898792,116.379483,670,8,16276,0.14,0.44,0.18,0.24,0.12,0.34,0.4,0.14,4.45,2.56
671,6,宣武门东,39.898514,116.370283,671,8,15358,0.15,0.38,0.26,0.21,0.13,0.34,0.39,0.14,4.45,2.39
672,6,长椿街路口西,39.898099,116.355985,672,8,16862,0.15,0.41,0.2,0.24,0.13,0.34,0.37,0.16,4.72,2.6
673,8,六里桥南,39.881002,116.304688,673,6,29229,0.16,0.36,0.28,0.2,0.07,0.51,0.28,0.14,8.66,6.87
674,8,西局,39.872791,116.305537,674,6,25665,0.15,0.39,0.25,0.21,0.07,0.51,0.26,0.16,9.31,7.43
675,8,丰台北路,39.865344,116.292175,675,6,27632,0.16,0.35,0.26,0.23,0.07,0.51,0.27,0.15,10.67,8.82
676,8,七里庄,39.864917,116.285945,676,6,29442,0.16,0.4,0.21,0.23,0.06,0.53,0.27,0.14,11.06,9.25
677,8,岔路口,39.859566,116.276732,677,6,25562,0.14,0.38,0.26,0.22,0.06,0.51,0.28,0.15,12.03,10.23
678,8,北大地,39.855945,116.276688,678,6,28891,0.14,0.35,0.29,0.22,0.07,0.49,0.29,0.15,12.33,10.5
679,8,正阳桥北,39.850526,116.27714,679,6,25779,0.16,0.38,0.23,0.23,0.07,0.5,0.27,0.16,12.76,10.89
680,8,看丹桥,39.837623,116.280207,680,6,28495,0.17,0.36,0.27,0.2,0.07,0.5,0.28,0.15,13.73,11.78
681,6,韩庄子南,39.835276,116.284531,681,6,16461,0.14,0.34,0.27,0.25,0.12,0.36,0.37,0.15,13.74,11.76
682,6,科丰桥北,39.833795,116.286478,682,6,17275,0.15,0.34,0.29,0.22,0.1,0.36,0.38,0.16,13.79,11.8
683,6,温泉公寓,39.832402,116.288325,683,6,17565,0.17,0.35,0.25,0.23,0.12,0.39,0.35,0.14,13.84,11.83
684,6,怡海花园西门,39.832379,116.290701,684,6,16198,0.17,0.35,0.24,0.24,0.13,0.36,0.37,0.14,13.74,11.72
685,8,看丹桥北,39.840823,116.279867,685,6,27483,0.14,0.35,0.3,0.21,0.06,0.48,0.3,0.16,13.46,11.53
686,6,长椿街路口东,39.898044,116.359349,686,4,15981,0.14,0.38,0.26,0.22,0.11,0.43,0.31,0.15,4.65,2.52
687,6,百子湾桥南,39.898859,116.483776,687,4,17483,0.13,0.4,0.24,0.23,0.12,0.4,0.33,0.15,10.42,10.21
688,6,百子湾桥西,39.899318,116.478968,688,4,15064,0.13,0.39,0.23,0.25,0.12,0.43,0.3,0.15,10.02,9.79
689,6,百子湾路口东,39.899185,116.473458,689,4,15168,0.14,0.4,0.25,0.21,0.12,0.43,0.32,0.13,9.61,9.34
690,7,景辉街东口,39.911214,116.471891,690,8,23886,0.13,0.42,0.23,0.22,0.1,0.44,0.32,0.14,8.95,8.97
693,7,石佛营路南口,39.923824,116.495918,693,8,23090,0.14,0.4,0.23,0.23,0.1,0.44,0.34,0.12,10.6,10.98
694,7,石佛营路,39.926284,116.495978,694,8,22551,0.15,0.41,0.22,0.22,0.12,0.41,0.34,0.13,10.56,11
695,7,八里庄北里东站,39.926964,116.495125,695,8,21422,0.14,0.37,0.26,0.23,0.11,0.41,0.33,0.15,10.48,10.93
696,7,八里庄北里,39.926965,116.492465,696,8,20559,0.13,0.41,0.23,0.23,0.1,0.43,0.32,0.15,10.26,10.7
697,7,高庙,39.928746,116.490053,697,8,20534,0.15,0.43,0.19,0.23,0.11,0.42,0.34,0.13,10.03,10.51
698,7,石佛营西里,39.930157,116.490327,698,8,20709,0.13,0.39,0.27,0.21,0.1,0.4,0.35,0.15,10.04,10.55
699,7,八王坟北,39.909374,116.47175,699,8,23588,0.15,0.43,0.21,0.21,0.11,0.41,0.33,0.15,9.01,8.98
700,7,雅宝路,39.914339,116.428593,700,8,21572,0.15,0.39,0.22,0.24,0.09,0.43,0.33,0.15,5.44,5.26
701,2,方庄桥北,39.859877,116.432308,701,4,5932,0.13,0.35,0.32,0.2,0.18,0.21,0.47,0.14,10.1,8.67
702,6,刘家窑桥南,39.854967,116.415702,702,4,16781,0.12,0.38,0.29,0.21,0.11,0.41,0.33,0.15,9.97,8.31
703,6,榴乡路北站,39.846907,116.415521,703,4,15251,0.14,0.37,0.26,0.23,0.11,0.43,0.3,0.16,10.81,9.09
704,6,宋家庄枢纽站,39.843755,116.423888,704,4,15078,0.13,0.4,0.24,0.23,0.1,0.43,0.32,0.15,11.39,9.74
705,6,榴乡路,39.845467,116.415666,705,4,15886,0.14,0.38,0.27,0.21,0.11,0.42,0.32,0.15,10.96,9.24
711,8,西马厂北口,39.844905,116.380278,711,6,29489,0.15,0.39,0.26,0.2,0.07,0.49,0.29,0.15,10.43,8.41
712,6,角门,39.844246,116.375813,712,4,17846,0.14,0.39,0.26,0.21,0.11,0.43,0.32,0.14,10.48,8.44
713,7,光华路口东,39.912042,116.447071,713,8,23920,0.13,0.38,0.27,0.22,0.1,0.43,0.34,0.13,6.96,6.86
714,7,光华桥西,39.912114,116.453479,714,8,20964,0.14,0.38,0.24,0.24,0.1,0.42,0.35,0.13,7.46,7.4
715,7,高庙北,39.931195,116.489885,715,8,22013,0.15,0.42,0.19,0.24,0.11,0.43,0.32,0.14,9.99,10.53
717,7,豆各庄路口南,39.933863,116.495915,717,8,22146,0.14,0.4,0.24,0.22,0.11,0.41,0.35,0.13,10.48,11.08
718,7,石佛营东里,39.931303,116.49591,718,8,21540,0.14,0.37,0.28,0.21,0.11,0.39,0.35,0.15,10.5,11.04
719,7,石佛营西里东站,39.930259,116.494553,719,8,22870,0.13,0.39,0.25,0.23,0.11,0.41,0.36,0.12,10.4,10.91
720,7,日坛公园,39.911951,116.436233,720,8,22424,0.15,0.44,0.19,0.22,0.1,0.43,0.34,0.13,6.14,5.94
723,6,时代庄园,40.038032,116.427399,723,5,17594,0.15,0.37,0.27,0.21,0.1,0.4,0.34,0.16,12,14.1
724,8,北苑家园,40.040105,116.42235,724,7,26409,0.15,0.41,0.24,0.2,0.06,0.5,0.29,0.15,12.05,14.17
725,8,北苑家园西站,40.040121,116.417824,725,7,28272,0.16,0.38,0.24,0.22,0.06,0.5,0.29,0.15,11.92,14.05
726,8,大羊坊东站,40.036158,116.415251,726,7,28843,0.16,0.36,0.26,0.22,0.07,0.5,0.28,0.15,11.44,13.56
727,8,大羊坊,40.035854,116.409606,727,7,28887,0.15,0.41,0.21,0.23,0.07,0.5,0.29,0.14,11.26,13.39
728,8,北苑,40.026816,116.411619,728,7,26478,0.16,0.42,0.21,0.21,0.06,0.5,0.28,0.16,10.35,12.48
729,8,辛店村,40.014736,116.410589,729,7,28092,0.15,0.37,0.25,0.23,0.07,0.52,0.27,0.14,9.06,11.18
730,8,科荟路东口,40.00807,116.408909,730,7,29236,0.17,0.38,0.22,0.23,0.06,0.52,0.28,0.14,8.32,10.43
731,8,慧忠北里北,40.005663,116.401459,731,7,27075,0.15,0.41,0.21,0.23,0.07,0.48,0.29,0.16,7.85,9.98
732,7,亮果厂,39.928024,116.399736,732,8,20612,0.15,0.38,0.26,0.21,0.11,0.42,0.34,0.13,2.55,2.91
733,7,沙滩路口南,39.921636,116.400115,733,8,23683,0.15,0.42,0.2,0.23,0.11,0.42,0.34,0.13,2.97,2.81
734,7,正义路,39.899376,116.399268,734,8,21044,0.15,0.4,0.23,0.22,0.1,0.43,0.34,0.13,4.89,3.55
735,7,李村,39.865591,116.407466,735,8,23348,0.15,0.41,0.22,0.22,0.09,0.44,0.34,0.13,8.62,6.94
736,7,琉璃井,39.862921,116.407597,736,8,20806,0.14,0.44,0.22,0.2,0.1,0.43,0.32,0.15,8.9,7.2
737,7,定安路,39.860051,116.407723,737,8,23448,0.14,0.41,0.25,0.2,0.11,0.41,0.32,0.16,9.21,7.49
738,6,石榴园南,39.841983,116.40853,738,4,15520,0.12,0.39,0.25,0.24,0.12,0.42,0.3,0.16,11.15,9.35
739,6,彩虹城小区,39.836403,116.408811,739,4,16038,0.12,0.41,0.23,0.24,0.11,0.4,0.33,0.16,11.75,9.93
741,6,榴乡路南站,39.842248,116.415687,741,4,15083,0.12,0.39,0.24,0.25,0.11,0.39,0.33,0.17,11.3,9.57
742,7,景泰路口东,39.863906,116.408697,742,8,22567,0.14,0.44,0.19,0.23,0.09,0.43,0.35,0.13,8.83,7.15
743,6,慧忠里,39.997322,116.400355,743,5,15926,0.14,0.38,0.23,0.25,0.11,0.4,0.34,0.15,6.94,9.06
744,6,地铁安贞门站,39.975676,116.398898,744,5,16741,0.15,0.4,0.24,0.21,0.11,0.41,0.32,0.16,4.68,6.77
745,6,安贞医院北站,39.975631,116.393877,745,5,16179,0.14,0.38,0.24,0.24,0.11,0.42,0.31,0.16,4.49,6.6
746,6,鼓楼外大街北站,39.960875,116.388597,746,4,17415,0.14,0.36,0.26,0.24,0.11,0.39,0.34,0.16,2.82,4.91
747,6,鼓楼外大街南站,39.953115,116.388964,747,4,16681,0.14,0.37,0.25,0.24,0.12,0.39,0.32,0.17,2.11,4.13
748,6,钟楼北桥北,39.951475,116.389041,748,4,16970,0.13,0.41,0.23,0.23,0.11,0.42,0.32,0.15,1.98,3.98
749,6,安定门西,39.947476,116.399413,749,4,17496,0.13,0.37,0.25,0.25,0.1,0.42,0.33,0.15,2.46,4.12
750,7,东四十条桥南,39.929857,116.427857,750,8,21974,0.14,0.39,0.25,0.22,0.1,0.43,0.33,0.14,4.77,5.28
751,7,朝阳门南,39.920598,116.428311,751,8,22993,0.13,0.42,0.22,0.23,0.11,0.39,0.35,0.15,5.11,5.2
752,7,东便门,39.899366,116.424171,752,8,20878,0.15,0.42,0.2,0.23,0.11,0.43,0.33,0.13,6.16,5.36
753,7,台基厂路口西,39.899508,116.403939,753,8,21907,0.13,0.44,0.2,0.23,0.1,0.42,0.35,0.13,5.07,3.86
754,7,前门东,39.899206,116.395996,754,8,21414,0.15,0.4,0.24,0.21,0.11,0.41,0.33,0.15,4.79,3.36
755,8,北京供电局,39.89893,116.38371,755,8,26712,0.14,0.38,0.26,0.22,0.07,0.49,0.29,0.15,4.49,2.71
756,8,丽泽桥,39.865831,116.305977,756,6,26262,0.15,0.37,0.28,0.2,0.07,0.49,0.28,0.16,9.9,7.97
757,5,丽泽桥北,39.87071,116.306146,757,6,11764,0.16,0.38,0.25,0.21,0.13,0.31,0.39,0.17,9.46,7.55
759,6,马甸桥北,39.973123,116.375238,759,5,15429,0.14,0.38,0.25,0.23,0.11,0.44,0.3,0.15,3.85,5.96
760,5,安翔桥北,39.993418,116.369262,760,5,10638,0.15,0.37,0.25,0.23,0.14,0.33,0.38,0.15,6.12,8.18
761,5,北沙滩桥南,39.998612,116.365207,761,5,11092,0.15,0.41,0.24,0.2,0.15,0.33,0.36,0.16,6.72,8.76
762,8,北沙滩桥东,40.000192,116.366595,762,5,29799,0.14,0.42,0.21,0.23,0.06,0.53,0.24,0.17,6.88,8.93
764,8,中科院地理所,40.00039,116.376653,764,5,27240,0.15,0.36,0.25,0.24,0.06,0.53,0.27,0.14,6.89,8.99
765,6,国家会议中心,39.999867,116.38057,765,5,15688,0.15,0.37,0.25,0.23,0.12,0.41,0.31,0.16,6.85,8.97
766,6,国家体育馆,39.997817,116.38068,766,5,16467,0.14,0.43,0.21,0.22,0.11,0.4,0.33,0.16,6.63,8.74
767,5,安翔桥南,39.992147,116.369612,767,5,11986,0.15,0.36,0.26,0.23,0.13,0.33,0.39,0.15,5.97,8.04
768,8,德外关厢北,39.961515,116.373321,768,9,27567,0.13,0.4,0.26,0.21,0.09,0.41,0.33,0.17,2.56,4.66
769,8,德胜门外,39.951936,116.372933,769,9,26082,0.14,0.41,0.25,0.2,0.09,0.38,0.38,0.15,1.49,3.6
770,5,积水潭桥南,39.943703,116.366083,770,5,10963,0.15,0.4,0.23,0.22,0.13,0.31,0.4,0.16,0.83,2.65
771,5,新街口北,39.940915,116.366056,771,5,10725,0.15,0.39,0.26,0.2,0.15,0.33,0.36,0.16,0.66,2.34
773,6,嘉园三里,39.841067,116.358997,773,4,16273,0.14,0.41,0.21,0.24,0.1,0.42,0.33,0.15,10.9,8.79
774,6,嘉园三里北,39.843017,116.358996,774,4,17445,0.13,0.36,0.3,0.21,0.12,0.41,0.31,0.16,10.69,8.57
775,6,嘉园二里南门,39.844474,116.361272,775,4,15614,0.12,0.36,0.29,0.23,0.1,0.42,0.32,0.16,10.5,8.4
776,6,嘉园二里东门,39.845789,116.365136,776,4,16533,0.14,0.39,0.22,0.25,0.1,0.42,0.32,0.16,10.33,8.24
777,6,万芳桥南,39.852528,116.365275,777,4,15225,0.13,0.38,0.25,0.24,0.11,0.43,0.3,0.16,9.58,7.49
778,6,万芳桥北,39.859419,116.366399,778,4,16422,0.14,0.37,0.28,0.21,0.1,0.43,0.33,0.14,8.81,6.72
779,6,开阳桥南,39.864785,116.36796,779,4,15873,0.14,0.41,0.22,0.23,0.11,0.42,0.33,0.14,8.21,6.12
780,6,南横街路口北,39.883413,116.368321,780,4,16611,0.13,0.36,0.29,0.22,0.11,0.42,0.32,0.15,6.14,4.05
781,6,天宁寺桥西,39.896584,116.338091,781,8,17529,0.15,0.41,0.22,0.22,0.12,0.34,0.39,0.15,5.54,3.59
782,8,莲花小区,39.895977,116.295814,782,6,27942,0.15,0.37,0.27,0.21,0.06,0.53,0.26,0.15,8.11,6.65
783,5,金家村桥东,39.895974,116.291362,783,6,10454,0.15,0.4,0.22,0.23,0.13,0.3,0.42,0.15,8.42,7
784,5,岳家楼桥,39.895984,116.277424,784,6,10895,0.15,0.34,0.28,0.23,0.14,0.28,0.4,0.18,9.43,8.11
785,8,宣武门西,39.898284,116.367097,785,8,28766,0.15,0.42,0.21,0.22,0.08,0.46,0.3,0.16,4.5,2.4
786,8,月坛北街,39.917064,116.340293,786,8,26522,0.13,0.39,0.27,0.21,0.08,0.47,0.29,0.16,3.68,2.32
787,6,北京儿童医院西门,39.912532,116.34692,787,4,15718,0.13,0.39,0.25,0.23,0.11,0.41,0.33,0.15,3.65,1.92
788,6,南礼士路南口,39.908083,116.346461,788,4,16788,0.14,0.38,0.23,0.25,0.12,0.41,0.31,0.16,4.07,2.21
791,6,友谊医院西,39.884949,116.385921,791,4,15119,0.13,0.41,0.25,0.21,0.11,0.4,0.35,0.14,6.05,4.19
792,6,友谊医院,39.884059,116.386991,792,4,15000,0.14,0.35,0.28,0.23,0.1,0.43,0.31,0.16,6.17,4.32
793,6,南纬路,39.879379,116.387461,793,4,17531,0.12,0.37,0.28,0.23,0.11,0.42,0.32,0.15,6.69,4.82
794,6,天桥商场,39.879508,116.391,794,4,16912,0.12,0.41,0.22,0.25,0.1,0.41,0.34,0.15,6.73,4.92
795,6,福长街,39.881458,116.38916,795,4,15535,0.13,0.35,0.28,0.24,0.11,0.4,0.35,0.14,6.49,4.66
796,6,西单路口西,39.905916,116.364689,796,4,16894,0.13,0.37,0.26,0.24,0.11,0.41,0.33,0.15,3.69,1.57
797,8,展览路口南,39.920347,116.338557,797,8,29765,0.14,0.43,0.21,0.22,0.08,0.45,0.32,0.15,3.57,2.45
798,5,蓟门桥东,39.966572,116.35368,798,5,10735,0.13,0.38,0.27,0.22,0.14,0.33,0.37,0.16,3.53,5.32
799,5,蓟门桥南,39.963,116.346968,799,5,10959,0.14,0.42,0.2,0.24,0.14,0.34,0.37,0.15,3.52,5.1
800,5,明光桥北,39.959629,116.347158,800,5,11935,0.14,0.4,0.23,0.23,0.14,0.33,0.37,0.16,3.23,4.74
801,5,明光村,39.956761,116.346615,801,5,10864,0.15,0.39,0.25,0.21,0.15,0.34,0.38,0.13,3.04,4.47
802,5,明光村西站,39.956791,116.343002,802,5,10274,0.14,0.42,0.24,0.2,0.13,0.34,0.37,0.16,3.27,4.6
804,5,皂君庙,39.956598,116.33501,804,5,10419,0.14,0.4,0.23,0.23,0.14,0.33,0.38,0.15,3.82,4.93
805,5,大柳树南站,39.948964,116.330834,805,5,11522,0.15,0.41,0.2,0.24,0.13,0.31,0.39,0.17,3.79,4.49
806,5,北京交通大学,39.945242,116.336985,806,5,11443,0.15,0.38,0.23,0.24,0.13,0.35,0.37,0.15,3.17,3.83
807,5,北下关,39.943771,116.340649,807,5,10220,0.13,0.42,0.22,0.23,0.15,0.3,0.39,0.16,2.83,3.5
808,5,地铁西直门站,39.940203,116.345621,808,5,10798,0.15,0.38,0.26,0.21,0.13,0.35,0.36,0.16,2.35,2.92
809,5,北京邮电大学南门,39.956568,116.352314,809,5,10723,0.14,0.39,0.23,0.24,0.15,0.31,0.39,0.15,2.68,4.28
810,5,北京师范大学南门,39.956555,116.361807,810,5,10063,0.15,0.4,0.23,0.22,0.14,0.32,0.37,0.17,2.23,4.11
811,6,东花市大街东口,39.896435,116.432297,811,4,16434,0.13,0.36,0.3,0.21,0.11,0.42,0.32,0.15,6.88,6.12
813,7,天坛南门东,39.871849,116.410908,813,8,21324,0.14,0.4,0.23,0.23,0.1,0.4,0.35,0.15,8.08,6.51
814,8,安苑路,39.982007,116.409362,814,7,28711,0.16,0.41,0.21,0.22,0.07,0.49,0.28,0.16,5.74,7.79
815,8,安苑东里,39.981875,116.40524,815,7,28733,0.16,0.38,0.25,0.21,0.06,0.51,0.28,0.15,5.55,7.62
816,8,安贞桥北,39.970294,116.401239,816,5,27459,0.14,0.42,0.22,0.22,0.06,0.54,0.25,0.15,4.27,6.31
817,6,地坛体育馆,39.955165,116.401702,817,4,16206,0.13,0.41,0.21,0.25,0.11,0.4,0.33,0.16,3.06,4.9
818,6,香河园路西口,39.943408,116.429174,818,4,15920,0.12,0.39,0.26,0.23,0.11,0.42,0.33,0.14,4.81,5.89
819,6,香河园,39.945561,116.432855,819,4,17686,0.14,0.37,0.26,0.23,0.12,0.41,0.31,0.16,5.15,6.28
820,6,三元桥西站,39.954288,116.443992,820,4,17537,0.13,0.4,0.22,0.25,0.11,0.42,0.32,0.15,6.29,7.58
821,8,惠新西街北口,39.985638,116.411137,821,7,28412,0.17,0.36,0.26,0.21,0.07,0.49,0.3,0.14,6.16,8.21
822,8,惠新东桥西,39.987215,116.414987,822,7,29756,0.16,0.38,0.22,0.24,0.07,0.47,0.29,0.17,6.49,8.52
823,5,马尾沟,39.926801,116.347257,823,5,10297,0.15,0.41,0.21,0.23,0.13,0.35,0.37,0.15,2.56,1.88
824,5,阜外医院,39.923492,116.347058,824,5,11293,0.16,0.43,0.18,0.23,0.16,0.31,0.37,0.16,2.78,1.77
825,6,真武庙,39.903123,116.346434,825,4,17248,0.13,0.41,0.22,0.24,0.11,0.43,0.31,0.15,4.54,2.57
826,6,西便门外,39.899826,116.345255,826,8,17687,0.15,0.4,0.22,0.23,0.12,0.35,0.36,0.17,4.91,2.91
827,6,天宁寺桥北,39.898251,116.342162,827,4,17744,0.14,0.4,0.23,0.23,0.1,0.45,0.29,0.16,5.2,3.22
828,8,广安门北,39.891241,116.342133,828,8,25984,0.15,0.4,0.22,0.23,0.07,0.47,0.29,0.17,5.88,3.84
829,6,白纸坊,39.878824,116.352972,829,4,17759,0.13,0.41,0.23,0.23,0.12,0.42,0.31,0.15,6.85,4.72
830,6,南樱桃园路口南,39.875037,116.357758,830,4,17576,0.13,0.4,0.24,0.23,0.11,0.41,0.33,0.15,7.18,5.05
831,6,右安门内,39.872887,116.357835,831,4,16700,0.13,0.36,0.27,0.24,0.12,0.44,0.3,0.14,7.41,5.28
832,6,右安门,39.866757,116.358025,832,4,17868,0.12,0.38,0.27,0.23,0.11,0.42,0.32,0.15,8.08,5.96
833,6,右安门外,39.862787,116.358225,833,4,15043,0.13,0.36,0.28,0.23,0.11,0.43,0.31,0.15,8.51,6.39
834,6,翠林小区,39.858417,116.358445,834,4,15945,0.13,0.35,0.3,0.22,0.1,0.42,0.33,0.15,8.99,6.87
835,6,南樱桃园路口西,39.87674,116.355438,835,4,17376,0.12,0.37,0.28,0.23,0.11,0.45,0.3,0.14,7.03,4.9
836,6,天宁寺桥东,39.896315,116.345505,836,4,15325,0.13,0.39,0.24,0.24,0.11,0.43,0.32,0.14,5.25,3.21
837,5,车公庄南街,39.927038,116.343286,837,5,11038,0.16,0.42,0.19,0.23,0.13,0.31,0.4,0.16,2.84,2.2
838,6,双庙,39.837177,116.424701,838,4,16135,0.14,0.38,0.25,0.23,0.11,0.4,0.32,0.17,12.1,10.42
839,6,双庙北,39.839383,116.423077,839,4,16476,0.12,0.36,0.31,0.21,0.12,0.41,0.31,0.16,11.82,10.13
840,6,地铁宋家庄站,39.842804,116.422125,840,4,15737,0.13,0.4,0.23,0.24,0.11,0.41,0.31,0.17,11.43,9.76
841,6,宋家庄,39.846954,116.422237,841,4,15050,0.14,0.39,0.23,0.24,0.11,0.42,0.31,0.16,11.01,9.36
843,8,刘家窑桥西,39.855933,116.4111,843,8,26887,0.15,0.4,0.23,0.22,0.08,0.46,0.3,0.16,9.74,8.03
844,7,南河沿,39.909156,116.400567,844,8,22806,0.15,0.4,0.21,0.24,0.1,0.44,0.33,0.13,4.02,3.08
845,7,东安门,39.912626,116.400506,845,8,22244,0.16,0.41,0.21,0.22,0.1,0.43,0.34,0.13,3.71,2.94
846,6,幸福大街北口,39.890145,116.422564,846,4,17719,0.14,0.35,0.28,0.23,0.11,0.42,0.31,0.16,6.83,5.76
847,6,幸福大街,39.887386,116.424648,847,4,15049,0.13,0.4,0.24,0.23,0.11,0.42,0.33,0.14,7.19,6.08
848,7,安乐林,39.863778,116.404113,848,8,23911,0.13,0.38,0.27,0.22,0.11,0.39,0.35,0.15,8.72,6.98
849,7,沙子口东,39.864025,116.396243,849,8,20264,0.15,0.44,0.19,0.22,0.1,0.42,0.35,0.13,8.51,6.68
850,6,北京体育馆东,39.883196,116.425226,850,4,15235,0.13,0.38,0.26,0.23,0.1,0.44,0.32,0.14,7.59,6.41
851,6,复兴门南,39.902697,116.350556,851,8,16715,0.15,0.41,0.21,0.23,0.11,0.33,0.4,0.16,4.42,2.38
852,6,北京儿童医院,39.909237,116.350463,852,8,16019,0.14,0.4,0.22,0.24,0.12,0.36,0.38,0.14,3.78,1.86
853,8,阜成门北,39.924127,116.350082,853,8,27741,0.14,0.38,0.26,0.22,0.07,0.44,0.31,0.18,2.53,1.54
854,8,西直门南,39.934547,116.349622,854,8,26721,0.14,0.38,0.25,0.23,0.08,0.46,0.32,0.14,2.05,2.22
855,8,玉桃园,39.94343,116.353663,855,8,26666,0.15,0.4,0.22,0.23,0.08,0.46,0.29,0.17,1.75,2.87
856,5,新街口豁口,39.94553,116.360611,856,8,10714,0.15,0.4,0.22,0.23,0.14,0.26,0.44,0.16,1.32,2.91
857,5,德胜门西,39.947379,116.370137,857,9,10042,0.15,0.4,0.23,0.22,0.15,0.23,0.44,0.18,1.02,3.07
858,6,鼓楼桥西,39.947487,116.384274,858,4,17402,0.13,0.41,0.23,0.23,0.11,0.42,0.31,0.16,1.38,3.4
859,7,潘家园,39.875429,116.439526,859,4,23831,0.12,0.38,0.28,0.22,0.09,0.47,0.29,0.15,9.02,7.9
860,6,健德门东,39.975531,116.377316,860,5,17220,0.15,0.38,0.23,0.24,0.12,0.39,0.34,0.15,4.13,6.25
861,6,健德门西,39.975514,116.374049,861,5,17820,0.14,0.4,0.23,0.23,0.11,0.43,0.31,0.15,4.12,6.22
862,5,牡丹园东,39.975381,116.367866,862,5,10480,0.13,0.41,0.26,0.2,0.13,0.33,0.38,0.16,4.13,6.17
863,5,塔院小区南门,39.975329,116.353888,863,5,10013,0.14,0.37,0.25,0.24,0.14,0.35,0.36,0.15,4.41,6.27
864,8,蓟门桥北,39.97189,116.346743,864,9,28017,0.15,0.4,0.22,0.23,0.08,0.39,0.37,0.16,4.34,6.05
865,5,明光桥南,39.955278,116.348683,865,5,11599,0.14,0.39,0.26,0.21,0.14,0.35,0.36,0.15,2.8,4.25
866,5,文慧桥南,39.950307,116.349151,866,5,11242,0.14,0.43,0.2,0.23,0.13,0.33,0.38,0.16,2.43,3.72
867,8,索家坟,39.946396,116.35,867,8,26478,0.15,0.38,0.26,0.21,0.07,0.44,0.32,0.17,2.16,3.3
868,5,车公庄南,39.928697,116.349556,868,5,11613,0.13,0.37,0.27,0.23,0.13,0.32,0.38,0.17,2.28,1.8
869,6,阜成门南,39.918297,116.349963,869,4,17363,0.12,0.38,0.28,0.22,0.11,0.44,0.3,0.15,2.99,1.49
870,6,月坛体育场,39.915627,116.350089,870,4,15339,0.13,0.37,0.29,0.21,0.11,0.42,0.33,0.14,3.21,1.54
871,5,皇亭子,39.901692,116.314913,871,6,10749,0.14,0.4,0.23,0.23,0.16,0.29,0.39,0.16,6.43,4.9
872,5,北京世纪坛医院,39.898302,116.315004,872,6,11751,0.15,0.39,0.26,0.2,0.15,0.27,0.43,0.15,6.67,5.06
873,5,文慧桥北,39.951127,116.34936,873,5,11931,0.15,0.41,0.21,0.23,0.15,0.33,0.36,0.16,2.46,3.8
874,5,蓟门桥,39.966427,116.34855,874,5,11739,0.14,0.37,0.26,0.23,0.15,0.32,0.37,0.16,3.74,5.42
875,6,虎坊桥路口东,39.888072,116.380784,875,4,16766,0.14,0.4,0.24,0.22,0.11,0.41,0.32,0.16,5.65,3.72
876,6,板章路,39.888679,116.38732,876,4,15387,0.13,0.36,0.28,0.23,0.12,0.41,0.32,0.15,5.67,3.86
877,6,过街楼,39.890607,116.395598,877,4,16527,0.14,0.4,0.21,0.25,0.1,0.39,0.35,0.16,5.66,4.05
878,6,榄杆市,39.891775,116.415951,878,4,17419,0.13,0.37,0.29,0.21,0.11,0.4,0.32,0.17,6.35,5.19
879,6,马圈,39.892181,116.441378,879,4,17707,0.13,0.42,0.23,0.22,0.11,0.44,0.31,0.14,7.77,7.03
880,6,垂杨柳,39.89211,116.447705,880,4,15958,0.13,0.36,0.29,0.22,0.11,0.43,0.32,0.14,8.19,7.52
881,6,双井桥西,39.892035,116.452649,881,4,15822,0.13,0.38,0.26,0.23,0.12,0.41,0.31,0.16,8.53,7.91
882,7,双井桥东,39.891914,116.45926,882,7,20136,0.16,0.38,0.26,0.2,0.09,0.45,0.33,0.13,8.99,8.44
883,7,九龙花园,39.891867,116.464116,883,7,22315,0.15,0.42,0.2,0.23,0.1,0.46,0.32,0.12,9.34,8.82
884,7,九龙山路口西,39.891828,116.469595,884,4,20616,0.13,0.41,0.23,0.23,0.09,0.49,0.28,0.14,9.73,9.27
885,6,珠市口西,39.889418,116.389979,885,4,15987,0.14,0.38,0.26,0.22,0.11,0.43,0.31,0.15,5.64,3.9
886,7,外交部街,39.911366,116.420638,886,8,20597,0.14,0.4,0.24,0.22,0.1,0.45,0.33,0.12,5.05,4.65
887,7,禄米仓,39.914868,116.420457,887,8,23735,0.13,0.44,0.22,0.21,0.11,0.43,0.33,0.13,4.82,4.57
888,7,演乐胡同,39.918727,116.420278,888,8,23783,0.14,0.41,0.23,0.22,0.11,0.4,0.36,0.13,4.58,4.52
889,6,东四六条,39.928676,116.419653,889,4,15146,0.13,0.37,0.26,0.24,0.11,0.41,0.34,0.14,4.12,4.57
890,6,东四九条,39.931008,116.419602,890,4,15998,0.13,0.35,0.31,0.21,0.1,0.42,0.32,0.16,4.05,4.63
891,6,海运仓,39.935686,116.41967,891,4,15622,0.14,0.4,0.22,0.24,0.11,0.43,0.31,0.15,3.98,4.8
892,7,北京站口北,39.907919,116.420718,892,8,21837,0.14,0.39,0.25,0.22,0.12,0.41,0.34,0.13,5.3,4.75
893,7,北京站,39.905022,116.422788,893,8,23696,0.13,0.37,0.28,0.22,0.1,0.44,0.32,0.14,5.64,5.01
894,8,地铁成寿寺站,39.846032,116.440319,894,4,29799,0.13,0.36,0.29,0.22,0.06,0.57,0.24,0.13,11.77,10.3
895,8,成寿寺,39.849302,116.439783,895,4,26046,0.14,0.4,0.26,0.2,0.06,0.55,0.24,0.15,11.43,9.99
896,8,方庄桥东,39.857727,116.438145,896,8,29627,0.14,0.4,0.25,0.21,0.07,0.48,0.29,0.16,10.56,9.18
897,7,安乐林路东口,39.864049,116.413391,897,8,23927,0.13,0.41,0.24,0.22,0.1,0.41,0.35,0.14,8.96,7.35
898,7,沙子口西,39.863983,116.392342,898,8,21978,0.15,0.44,0.19,0.22,0.1,0.43,0.33,0.14,8.45,6.57
899,7,革新里,39.863899,116.388183,899,8,22024,0.14,0.41,0.23,0.22,0.11,0.42,0.34,0.13,8.39,6.47
900,7,西革新里,39.863854,116.384165,900,8,23391,0.13,0.38,0.25,0.24,0.11,0.41,0.35,0.13,8.35,6.39
901,6,南纬路西站,39.879271,116.385242,901,4,15307,0.14,0.39,0.22,0.25,0.1,0.42,0.32,0.16,6.67,4.76
902,2,成寿寺路北口,39.856319,116.438934,902,4,5588,0.14,0.41,0.23,0.22,0.21,0.19,0.45,0.15,10.73,9.34
903,5,二里庄北口,40.000063,116.35666,903,5,10639,0.15,0.37,0.25,0.23,0.14,0.33,0.37,0.16,6.99,8.97
904,5,中国农业大学东校区,39.999893,116.350671,904,5,11277,0.14,0.36,0.28,0.22,0.13,0.34,0.38,0.15,7.09,9.01
905,8,学院路北口,39.99572,116.346491,905,9,29185,0.15,0.42,0.19,0.24,0.09,0.41,0.34,0.16,6.75,8.62
906,8,成府路口南,39.989368,116.34695,906,9,26308,0.15,0.41,0.21,0.23,0.08,0.4,0.36,0.16,6.08,7.92
907,5,北京城市学院,39.985522,116.339726,907,5,11674,0.14,0.38,0.25,0.23,0.14,0.32,0.39,0.15,5.95,7.67
908,5,保福寺桥西,39.984858,116.324959,908,5,11178,0.13,0.41,0.23,0.23,0.15,0.34,0.37,0.14,6.59,8.08
909,5,中关村一街,39.984598,116.316309,909,5,10533,0.16,0.43,0.17,0.24,0.14,0.34,0.36,0.16,7.05,8.41
910,5,中关村西,39.98434,116.308028,910,5,11421,0.14,0.4,0.25,0.21,0.14,0.32,0.39,0.15,7.53,8.77
911,5,北京市地震局,39.978557,116.299726,911,5,11675,0.15,0.42,0.19,0.24,0.13,0.34,0.38,0.15,7.68,8.71
912,5,人民大学西门,39.970846,116.300465,912,5,11028,0.15,0.38,0.25,0.22,0.16,0.32,0.37,0.15,7.16,8.04
913,5,万泉庄,39.965135,116.301015,913,5,11187,0.15,0.41,0.21,0.23,0.14,0.33,0.36,0.17,6.82,7.57
914,5,三义庙,39.962266,116.306264,914,5,10858,0.14,0.43,0.2,0.23,0.15,0.33,0.35,0.17,6.28,7.02
915,8,四通桥西,39.963927,116.310844,915,5,29208,0.13,0.43,0.24,0.2,0.06,0.54,0.24,0.16,6.01,6.87
917,5,中国农业科学院,39.959747,116.316442,917,5,10571,0.15,0.36,0.26,0.23,0.13,0.35,0.36,0.16,5.38,6.2
918,5,魏公村,39.951895,116.31757,918,5,11903,0.15,0.38,0.25,0.22,0.15,0.31,0.4,0.14,4.96,5.54
920,5,海淀桥东,39.983785,116.304276,920,5,11553,0.14,0.38,0.24,0.24,0.13,0.32,0.39,0.16,7.73,8.91
921,6,安定门外,39.950089,116.400612,921,4,17486,0.14,0.4,0.24,0.22,0.11,0.43,0.3,0.16,2.68,4.4
922,6,地兴居,39.950107,116.393481,922,4,16764,0.14,0.37,0.24,0.25,0.11,0.4,0.33,0.16,2.16,4.04
923,6,六铺炕,39.950086,116.387442,923,4,15659,0.13,0.41,0.23,0.23,0.11,0.42,0.33,0.14,1.78,3.78
924,6,后九条,39.950048,116.382535,924,4,17823,0.14,0.41,0.23,0.22,0.11,0.41,0.31,0.17,1.52,3.6
925,6,安德路西口,39.949963,116.37617,925,4,15976,0.14,0.41,0.22,0.23,0.1,0.44,0.3,0.16,1.3,3.43
927,8,花园桥东,39.931146,116.307046,927,8,26517,0.13,0.44,0.21,0.22,0.07,0.47,0.3,0.16,5.69,5.29
928,8,花园桥南,39.928272,116.303794,928,6,25970,0.15,0.4,0.25,0.2,0.07,0.48,0.29,0.16,6.02,5.5
929,8,航天桥北,39.924202,116.303787,929,6,25397,0.15,0.4,0.24,0.21,0.06,0.5,0.29,0.15,6.12,5.44
933,7,周家庄,39.857753,116.46712,933,4,20677,0.14,0.37,0.28,0.21,0.1,0.46,0.29,0.15,12.04,10.96
934,7,周家庄西站,39.858951,116.462264,934,4,20174,0.12,0.41,0.24,0.23,0.1,0.46,0.3,0.14,11.67,10.56
935,7,十里河桥东,39.86427,116.45342,935,4,23376,0.13,0.41,0.23,0.23,0.08,0.52,0.27,0.13,10.73,9.6
937,2,华威桥南,39.867912,116.45512,937,4,5545,0.14,0.39,0.28,0.19,0.21,0.19,0.47,0.13,10.51,9.46
938,2,潘家园桥,39.874782,116.455199,938,4,5863,0.14,0.42,0.24,0.2,0.2,0.2,0.46,0.14,9.96,9.02
939,2,劲松桥南,39.880202,116.455339,939,4,5879,0.13,0.4,0.27,0.2,0.2,0.19,0.46,0.15,9.55,8.71
940,8,劲松桥北,39.885822,116.455448,940,4,29379,0.13,0.41,0.23,0.23,0.07,0.52,0.26,0.15,9.15,8.42
941,8,双井桥南,39.889312,116.455518,941,8,25050,0.14,0.37,0.27,0.22,0.07,0.48,0.29,0.16,8.91,8.26
942,8,双井桥北,39.892972,116.455578,942,8,25993,0.13,0.42,0.21,0.24,0.08,0.44,0.32,0.16,8.67,8.1
943,7,双花园,39.895962,116.455638,943,7,20084,0.14,0.43,0.21,0.22,0.1,0.43,0.34,0.13,8.48,7.99
944,8,双井桥,39.891191,116.455006,944,7,29783,0.15,0.4,0.25,0.2,0.07,0.51,0.27,0.15,8.74,8.13
945,8,光明桥东,39.883185,116.442983,945,8,28433,0.13,0.43,0.2,0.24,0.08,0.45,0.31,0.16,8.56,7.64
946,8,劲松中街,39.883144,116.447215,946,8,29929,0.15,0.41,0.23,0.21,0.07,0.45,0.33,0.15,8.82,7.95
947,8,劲松桥东,39.883015,116.457977,947,8,28640,0.15,0.41,0.21,0.23,0.07,0.46,0.31,0.16,9.51,8.75
948,8,农光东里,39.881858,116.461649,948,8,25899,0.13,0.43,0.21,0.23,0.07,0.49,0.29,0.15,9.83,9.09
949,8,武圣东里,39.877778,116.461639,949,8,26901,0.13,0.4,0.25,0.22,0.08,0.49,0.28,0.15,10.13,9.31
950,8,武圣路,39.873638,116.46165,950,8,27170,0.15,0.42,0.23,0.2,0.07,0.46,0.31,0.16,10.44,9.55
951,8,松榆里,39.869976,116.462363,951,8,26170,0.15,0.39,0.22,0.24,0.07,0.46,0.3,0.17,10.77,9.82
952,8,松榆东里南门,39.869956,116.468253,952,8,29066,0.13,0.39,0.26,0.22,0.07,0.48,0.31,0.14,11.13,10.24
953,7,北京工业大学南门,39.869851,116.473692,953,4,20723,0.14,0.42,0.22,0.22,0.1,0.48,0.3,0.12,11.48,10.64
954,7,四方桥西,39.869831,116.477295,954,4,23148,0.14,0.41,0.22,0.23,0.1,0.47,0.29,0.14,11.72,10.91
956,7,小武基桥北,39.860042,116.48085,956,4,22901,0.12,0.39,0.27,0.22,0.09,0.5,0.27,0.14,12.67,11.75
958,7,弘燕桥西,39.866472,116.477426,958,4,23309,0.12,0.36,0.28,0.24,0.1,0.48,0.28,0.14,11.97,11.11
959,7,双龙小区,39.867607,116.47584,959,4,21505,0.14,0.4,0.24,0.22,0.09,0.5,0.27,0.14,11.79,10.93
961,6,东直门外,39.944902,116.435644,961,9,15322,0.14,0.44,0.18,0.24,0.12,0.28,0.44,0.16,5.38,6.46
962,6,小马厂,39.89614,116.328851,962,8,16693,0.14,0.4,0.21,0.25,0.12,0.36,0.36,0.16,6.04,4.21
964,6,马家堡中路南口,39.840443,116.369847,964,4,16910,0.13,0.38,0.26,0.23,0.11,0.4,0.34,0.15,10.91,8.83
965,6,马家堡中路,39.843004,116.369762,965,4,16656,0.14,0.37,0.24,0.25,0.11,0.43,0.3,0.16,10.62,8.55
966,6,嘉园二里西门,39.846867,116.358886,966,4,15513,0.14,0.4,0.24,0.22,0.11,0.42,0.32,0.15,10.26,8.15
967,8,福宜街东口,39.857422,116.355441,967,6,25833,0.16,0.36,0.27,0.21,0.06,0.48,0.31,0.15,9.14,7.02
968,8,福宜街,39.85725,116.352216,968,6,29631,0.16,0.37,0.26,0.21,0.06,0.49,0.29,0.16,9.21,7.08
969,8,中顶村,39.856648,116.349223,969,6,26386,0.17,0.4,0.21,0.22,0.07,0.5,0.28,0.15,9.33,7.19
970,8,西铁营,39.859953,116.348253,970,6,28689,0.16,0.4,0.22,0.22,0.07,0.51,0.27,0.15,8.99,6.86
971,8,玉林西路,39.862633,116.348398,971,6,28657,0.16,0.34,0.28,0.22,0.07,0.49,0.29,0.15,8.7,6.56
972,6,白纸坊桥西,39.876255,116.341855,972,4,17449,0.14,0.38,0.27,0.21,0.1,0.41,0.34,0.15,7.42,5.31
973,6,莲花晴园,39.876057,116.332665,973,4,15730,0.14,0.39,0.22,0.25,0.1,0.44,0.31,0.15,7.75,5.7
974,6,红莲南里,39.87591,116.329063,974,4,17416,0.13,0.37,0.26,0.24,0.11,0.43,0.29,0.17,7.91,5.87
975,6,红莲南路,39.875782,116.323626,975,4,16769,0.14,0.37,0.24,0.25,0.11,0.43,0.3,0.16,8.15,6.16
976,6,红莲南路西口,39.875743,116.321441,976,4,17709,0.14,0.36,0.26,0.24,0.11,0.41,0.33,0.15,8.25,6.27
977,6,戎晖嘉园,39.877378,116.318215,977,4,16031,0.13,0.41,0.22,0.24,0.11,0.42,0.32,0.15,8.25,6.31
978,6,茶马北街,39.880242,116.319036,978,4,15388,0.14,0.38,0.24,0.24,0.12,0.4,0.33,0.15,7.95,6.03
979,6,马连道,39.879482,116.320525,979,4,15274,0.14,0.38,0.26,0.22,0.11,0.41,0.32,0.16,7.95,6.01
980,6,马连道南口,39.876431,116.320622,980,4,16283,0.14,0.4,0.21,0.25,0.11,0.41,0.33,0.15,8.23,6.26
981,8,三元桥南,39.954703,116.450763,981,9,25013,0.14,0.46,0.16,0.24,0.08,0.44,0.33,0.15,6.86,8.1
982,8,亮马桥,39.94301,116.455511,982,9,26245,0.13,0.45,0.2,0.22,0.08,0.45,0.33,0.14,7.04,7.95
983,8,潘家园桥北,39.877091,116.454953,983,8,27699,0.15,0.44,0.18,0.23,0.08,0.44,0.33,0.15,9.77,8.86
985,8,木樨园桥,39.855829,116.393883,985,4,27825,0.13,0.41,0.23,0.23,0.06,0.53,0.27,0.14,9.36,7.47
986,8,木樨园桥西,39.855851,116.386405,986,6,28239,0.15,0.4,0.24,0.21,0.06,0.5,0.28,0.16,9.26,7.3
987,8,洋桥西,39.855787,116.376621,987,6,28934,0.17,0.35,0.27,0.21,0.07,0.52,0.27,0.14,9.2,7.17
988,8,玉泉营桥西,39.847672,116.3323,988,6,26172,0.15,0.35,0.27,0.23,0.07,0.48,0.28,0.17,10.68,8.56
989,8,夏家胡同,39.848452,116.320474,989,6,27718,0.15,0.39,0.23,0.23,0.06,0.51,0.29,0.14,10.97,8.89
990,8,航天桥,39.922741,116.304114,990,8,28648,0.14,0.44,0.21,0.21,0.07,0.48,0.3,0.15,6.14,5.4
991,8,紫竹桥,39.940361,116.304151,991,8,29872,0.13,0.43,0.2,0.24,0.07,0.49,0.28,0.16,5.88,5.85
993,8,蓟门桥西,39.966236,116.34334,993,9,29827,0.14,0.45,0.2,0.21,0.08,0.41,0.35,0.16,3.99,5.55
994,8,马甸桥东,39.966768,116.377437,994,9,28631,0.15,0.42,0.19,0.24,0.08,0.41,0.34,0.17,3.16,5.29
995,8,安华桥西,39.966933,116.384092,995,9,28777,0.15,0.41,0.21,0.23,0.09,0.43,0.34,0.14,3.3,5.43
996,8,安贞桥西,39.967251,116.395088,996,9,29924,0.15,0.46,0.16,0.23,0.08,0.39,0.37,0.16,3.71,5.78
997,2,十里河桥西,39.865443,116.451404,997,4,5946,0.13,0.38,0.28,0.21,0.2,0.18,0.47,0.15,10.52,9.39
998,8,大钟寺,39.966442,116.331038,998,9,29949,0.14,0.45,0.2,0.21,0.08,0.44,0.33,0.15,4.74,6.03
999,6,天通北苑,40.075159,116.431868,999,5,17531,0.15,0.37,0.23,0.25,0.12,0.41,0.31,0.16,16,18.12
1000,6,天通东苑三区北站,40.072323,116.435942,1000,5,17159,0.14,0.37,0.25,0.24,0.11,0.4,0.33,0.16,15.81,17.93
1001,6,天通东苑三区,40.068373,116.435949,1001,5,17482,0.14,0.43,0.2,0.23,0.11,0.4,0.32,0.17,15.4,17.52
1002,6,天通东苑二区,40.062664,116.435951,1002,5,16189,0.14,0.38,0.24,0.24,0.1,0.43,0.32,0.15,14.81,16.92
1003,6,天通苑东区小学,40.062845,116.430485,1003,5,16207,0.14,0.43,0.19,0.24,0.12,0.42,0.31,0.15,14.67,16.79
1004,6,天通东苑二区西站,40.066575,116.430455,1004,5,15469,0.15,0.39,0.23,0.23,0.12,0.4,0.32,0.16,15.06,17.18
1005,6,天通苑塔楼,40.068197,116.425402,1005,5,16742,0.13,0.38,0.27,0.22,0.1,0.43,0.32,0.15,15.09,17.22
1006,6,天通中苑东区,40.068654,116.423186,1006,5,15712,0.16,0.37,0.22,0.25,0.12,0.41,0.32,0.15,15.09,17.22
1007,6,天通中苑西区,40.069538,116.416969,1007,5,16193,0.14,0.39,0.24,0.23,0.1,0.44,0.31,0.15,15.04,17.17
1008,6,天通苑街心花园北站,40.063897,116.415014,1008,5,15763,0.15,0.36,0.24,0.25,0.1,0.41,0.33,0.16,14.39,16.53
1009,6,天通苑街心花园,40.061417,116.415043,1009,5,17775,0.14,0.37,0.27,0.22,0.11,0.42,0.33,0.14,14.13,16.26
1010,8,天通苑西门,40.061524,116.410924,1010,7,25746,0.17,0.36,0.24,0.23,0.07,0.47,0.31,0.15,14.05,16.19
1011,8,丽水园,40.063841,116.410533,1011,7,26573,0.16,0.41,0.22,0.21,0.06,0.51,0.27,0.16,14.3,16.43
1012,8,地铁天通苑南站,40.06478,116.406718,1012,7,28514,0.17,0.42,0.21,0.2,0.06,0.51,0.29,0.14,14.33,16.46
1013,8,天通西苑南,40.058452,116.407246,1013,7,28870,0.16,0.4,0.22,0.22,0.08,0.49,0.29,0.14,13.65,15.78
1014,8,地铁立水桥站,40.051779,116.406906,1014,7,29631,0.17,0.43,0.18,0.22,0.06,0.46,0.31,0.17,12.92,15.05
1015,8,立水桥北站,40.048102,116.40561,1015,7,26415,0.15,0.39,0.26,0.2,0.07,0.49,0.28,0.16,12.5,14.63
1016,8,慧忠北里,40.003233,116.401505,1016,7,26060,0.14,0.41,0.24,0.21,0.07,0.49,0.27,0.17,7.59,9.72
1017,8,东小口,40.056076,116.41034,1017,7,25052,0.16,0.43,0.19,0.22,0.07,0.5,0.29,0.14,13.45,15.59
1018,7,辛庄,39.9393,116.488308,1018,8,23332,0.15,0.44,0.21,0.2,0.11,0.39,0.36,0.14,9.82,10.54
1019,7,豆各庄,39.938262,116.495555,1019,8,22074,0.14,0.4,0.23,0.23,0.11,0.43,0.33,0.13,10.44,11.13
1020,7,豆各庄路口北,39.936303,116.495756,1020,8,20122,0.14,0.42,0.23,0.21,0.11,0.39,0.35,0.15,10.46,11.11
1023,5,四通桥东,39.966054,116.317728,1023,5,11497,0.14,0.36,0.28,0.22,0.14,0.32,0.39,0.15,5.63,6.65
1024,5,人民大学,39.96741,116.314555,1024,5,11773,0.16,0.41,0.2,0.23,0.13,0.34,0.37,0.16,5.94,6.94
1025,5,海淀黄庄南,39.971783,116.312759,1025,5,10237,0.14,0.39,0.25,0.22,0.14,0.34,0.37,0.15,6.34,7.41
1026,5,海淀黄庄北,39.976086,116.311092,1026,5,10614,0.16,0.42,0.2,0.22,0.15,0.31,0.38,0.16,6.74,7.88
1027,5,中关村南,39.982007,116.310532,1027,5,11436,0.15,0.4,0.24,0.21,0.14,0.34,0.36,0.16,7.2,8.44
1028,5,海淀南路西口,39.974141,116.297411,1028,5,11568,0.15,0.38,0.27,0.2,0.15,0.31,0.4,0.14,7.57,8.48
1029,5,巴沟村,39.973072,116.291931,1029,5,11881,0.14,0.39,0.24,0.23,0.14,0.33,0.38,0.15,7.91,8.74
1030,5,万泉河桥南,39.976855,116.295005,1030,5,10759,0.14,0.42,0.24,0.2,0.15,0.33,0.38,0.14,7.91,8.84
1032,5,海淀桥北,39.986438,116.299016,1032,5,10235,0.15,0.43,0.2,0.22,0.14,0.33,0.36,0.17,8.26,9.42
1035,7,长虹桥东,39.932344,116.457078,1035,8,22699,0.14,0.44,0.2,0.22,0.11,0.4,0.36,0.13,7.19,7.78
1036,5,西闸,40.145887,116.193177,1036,5,11156,0.13,0.42,0.23,0.22,0.13,0.34,0.36,0.17,27.68,29.18
1037,5,白水洼北站,40.13981,116.198092,1037,5,11717,0.14,0.39,0.26,0.21,0.14,0.32,0.39,0.15,26.89,28.39
1038,5,白水洼,40.13638,116.200816,1038,5,11491,0.14,0.43,0.23,0.2,0.13,0.33,0.38,0.16,26.44,27.94
1039,5,上庄馨悦家园,40.127172,116.204166,1039,5,10767,0.14,0.39,0.23,0.24,0.14,0.31,0.4,0.15,25.44,26.91
1040,5,上庄东小营,40.120638,116.206209,1040,5,10638,0.15,0.37,0.28,0.2,0.15,0.33,0.35,0.17,24.74,26.2
1041,5,上庄卫生院,40.111519,116.20607,1041,5,10363,0.15,0.39,0.23,0.23,0.14,0.3,0.39,0.17,23.93,25.35
1042,5,上庄南口,40.107445,116.204998,1042,5,11123,0.15,0.4,0.22,0.23,0.13,0.35,0.37,0.15,23.62,25.02
1043,5,上庄水库,40.10277,116.206542,1043,5,10627,0.15,0.39,0.26,0.2,0.14,0.32,0.38,0.16,23.13,24.52
1044,5,上庄水库南站,40.097782,116.207855,1044,5,11459,0.14,0.39,0.25,0.22,0.13,0.33,0.39,0.15,22.62,24
1045,5,上庄镇,40.094743,116.208447,1045,5,10347,0.14,0.36,0.27,0.23,0.15,0.32,0.38,0.15,22.33,23.69
1046,5,上庄镇南站,40.088785,116.20984,1046,5,10093,0.14,0.36,0.27,0.23,0.13,0.31,0.41,0.15,21.74,23.08
1047,5,永丰屯北,40.078626,116.210282,1047,5,11462,0.14,0.42,0.21,0.23,0.14,0.31,0.39,0.16,20.86,22.15
1048,5,永丰屯,40.072656,116.211534,1048,5,11036,0.14,0.4,0.25,0.21,0.14,0.33,0.38,0.15,20.3,21.56
1049,5,上庄路口北,40.068819,116.212347,1049,5,10409,0.14,0.37,0.27,0.22,0.14,0.35,0.36,0.15,19.94,21.18
1050,5,屯佃,40.060571,116.21328,1050,5,11219,0.15,0.37,0.26,0.22,0.14,0.32,0.36,0.18,19.22,20.42
1051,5,画眉山路,40.045832,116.224859,1051,5,11912,0.15,0.37,0.24,0.24,0.14,0.32,0.39,0.15,17.38,18.53
1052,5,画眉山路东,40.045345,116.229374,1052,5,11131,0.15,0.43,0.22,0.2,0.14,0.31,0.39,0.16,17.06,18.24
1054,5,黑山扈北口,40.028765,116.259014,1054,5,11569,0.16,0.39,0.21,0.24,0.14,0.32,0.37,0.17,13.97,15.23
1055,5,黑山扈,40.022054,116.259754,1055,5,10438,0.15,0.37,0.24,0.24,0.14,0.31,0.4,0.15,13.4,14.6
1056,5,国防大学,40.016124,116.260983,1056,5,11587,0.15,0.38,0.25,0.22,0.13,0.31,0.41,0.15,12.88,14.02
1057,5,红山口,40.008614,116.261255,1057,5,11765,0.15,0.37,0.27,0.21,0.14,0.3,0.4,0.16,12.31,13.38
1058,5,颐和园北宫门,40.00318,116.267521,1058,5,10145,0.14,0.42,0.21,0.23,0.16,0.32,0.36,0.16,11.52,12.58
1061,5,西苑北站,39.997782,116.283443,1061,5,11600,0.15,0.39,0.22,0.24,0.13,0.34,0.36,0.17,10.09,11.23
1062,5,百旺家苑,40.030445,116.263612,1062,5,10889,0.14,0.42,0.2,0.24,0.15,0.3,0.39,0.16,13.84,15.14
1063,5,圆明园西路北口,40.028631,116.2687,1063,5,11158,0.15,0.39,0.26,0.2,0.14,0.32,0.39,0.15,13.4,14.73
1064,5,梅园,40.025285,116.271615,1064,5,11568,0.14,0.4,0.23,0.23,0.13,0.33,0.37,0.17,12.96,14.28
1065,5,中国农业大学西校区,40.022142,116.274382,1065,5,11912,0.15,0.43,0.2,0.22,0.14,0.32,0.38,0.16,12.54,13.86
1066,5,农大南路西口,40.021646,116.280688,1066,5,10706,0.15,0.38,0.26,0.21,0.13,0.33,0.37,0.17,12.14,13.51
1067,5,厢黄旗,40.022484,116.285796,1067,5,10405,0.14,0.42,0.23,0.21,0.16,0.31,0.37,0.16,11.94,13.36
1068,5,树村,40.023394,116.292784,1068,5,11346,0.15,0.42,0.22,0.21,0.16,0.33,0.36,0.15,11.66,13.15
1069,5,树村东口,40.02431,116.300688,1069,5,11340,0.14,0.38,0.24,0.24,0.13,0.32,0.4,0.15,11.36,12.93
1070,5,正白旗,40.023891,116.307475,1070,5,10182,0.15,0.4,0.22,0.23,0.14,0.3,0.39,0.17,11.02,12.64
1071,5,北京体育大学,40.021021,116.307823,1071,5,11102,0.15,0.42,0.2,0.23,0.13,0.32,0.39,0.16,10.73,12.34
1072,5,圆明园东门,40.015234,116.311416,1072,5,10805,0.15,0.36,0.27,0.22,0.15,0.33,0.36,0.16,10.02,11.63
1073,5,清华附中,40.008081,116.312704,1073,5,10828,0.13,0.37,0.28,0.22,0.15,0.32,0.37,0.16,9.29,10.86
1074,5,圆明园东路,40.002769,116.309023,1074,5,11273,0.15,0.38,0.24,0.23,0.14,0.34,0.37,0.15,8.99,10.47
1075,5,中关园,39.988177,116.309811,1075,5,10775,0.14,0.4,0.24,0.22,0.13,0.33,0.38,0.16,7.72,9.04
1078,7,地铁草房站,39.923178,116.608939,1078,8,23640,0.14,0.41,0.23,0.22,0.11,0.39,0.37,0.13,20.18,20.61
1079,7,金榆路南口,39.926102,116.62187,1079,8,23421,0.13,0.44,0.2,0.23,0.1,0.4,0.37,0.13,21.26,21.72
1080,7,金榆路高安屯,39.948801,116.621747,1080,8,23648,0.15,0.39,0.23,0.23,0.11,0.39,0.37,0.13,21.23,21.93
1081,7,金榆路高安屯北站,39.954461,116.621718,1081,8,22262,0.15,0.38,0.27,0.2,0.11,0.41,0.33,0.15,21.27,22.03
1082,7,朝阳沙窝,39.960495,116.626108,1082,8,23013,0.13,0.42,0.22,0.23,0.1,0.39,0.38,0.13,21.71,22.52
1083,7,黎各庄,39.971607,116.62404,1083,8,23784,0.14,0.44,0.19,0.23,0.11,0.42,0.34,0.13,21.7,22.63
1084,7,朝阳农场,39.98212,116.621763,1084,8,23108,0.14,0.43,0.2,0.23,0.1,0.41,0.35,0.14,21.74,22.77
1085,7,皮村西口,39.987382,116.619936,1085,8,21710,0.13,0.43,0.2,0.24,0.11,0.43,0.33,0.13,21.73,22.81
1086,7,皮村路口北,39.987819,116.604458,1086,8,23110,0.13,0.4,0.25,0.22,0.1,0.44,0.31,0.15,20.47,21.58
1087,7,幸福家园,39.990495,116.603338,1087,8,20255,0.15,0.43,0.19,0.23,0.11,0.41,0.33,0.15,20.46,21.6
1088,7,东窑村口,39.994975,116.602668,1088,8,20914,0.14,0.39,0.24,0.23,0.11,0.44,0.33,0.12,20.55,21.73
1089,7,东窑村北,39.999905,116.602867,1089,8,20042,0.14,0.43,0.2,0.23,0.1,0.41,0.35,0.14,20.74,21.96
1090,7,金盏,40.000658,116.573388,1090,8,20499,0.13,0.4,0.27,0.2,0.11,0.45,0.31,0.13,18.41,19.73
1091,3,金盏卫生院,40.001453,116.56618,1091,8,5800,0.14,0.41,0.21,0.24,0.19,0.17,0.47,0.17,17.88,19.23
1092,3,长店路口东,40.001907,116.561243,1092,8,5538,0.13,0.4,0.24,0.23,0.19,0.15,0.51,0.15,17.51,18.88
1093,3,郁金香花园,40.003125,116.55976,1093,8,5145,0.14,0.41,0.2,0.25,0.19,0.16,0.49,0.16,17.45,18.84
1094,3,小店路口,40.007703,116.558488,1094,8,5247,0.14,0.44,0.18,0.24,0.19,0.16,0.49,0.16,17.57,19
1095,3,蟹岛度假村东门,40.015319,116.556043,1095,3,5752,0.15,0.36,0.26,0.23,0.18,0.31,0.34,0.17,17.78,19.27
1096,5,海淀南路,39.974357,116.302131,1096,5,11526,0.13,0.39,0.27,0.21,0.14,0.33,0.37,0.16,7.24,8.22
1097,5,五道口,39.991446,116.328929,1097,5,10183,0.15,0.38,0.25,0.22,0.13,0.34,0.39,0.14,6.99,8.61
1098,5,北京语言大学,39.991719,116.339056,1098,5,11899,0.14,0.39,0.23,0.24,0.13,0.34,0.37,0.16,6.59,8.35
1099,5,中国地质大学,39.991875,116.344245,1099,5,10572,0.15,0.4,0.22,0.23,0.13,0.36,0.36,0.15,6.42,8.25
1100,5,北京科技大学北门,39.992124,116.352918,1100,5,11081,0.13,0.37,0.29,0.21,0.13,0.32,0.39,0.16,6.21,8.13
1101,5,北沙滩桥北,40.001218,116.363261,1101,5,11412,0.16,0.37,0.23,0.24,0.13,0.33,0.39,0.15,7.02,9.05
1102,5,双泉堡南,40.003774,116.361429,1102,5,10316,0.14,0.42,0.24,0.2,0.15,0.32,0.36,0.17,7.33,9.35
1103,5,双泉堡,40.009047,116.357522,1103,5,11317,0.14,0.4,0.26,0.2,0.14,0.3,0.38,0.18,7.96,9.95
1104,5,花虎沟南,40.016564,116.351829,1104,5,11003,0.15,0.43,0.21,0.21,0.14,0.33,0.38,0.15,8.87,10.83
1105,8,清河南镇,40.024793,116.345451,1105,9,27846,0.14,0.41,0.24,0.21,0.09,0.44,0.32,0.15,9.88,11.82
1106,8,清河,40.029244,116.342053,1106,9,25458,0.14,0.41,0.22,0.23,0.09,0.43,0.34,0.14,10.43,12.35
1107,8,清河小营桥南,40.03662,116.336238,1107,9,29373,0.14,0.44,0.18,0.24,0.08,0.43,0.32,0.17,11.35,13.25
1108,5,清河小营桥北,40.038581,116.334761,1108,5,11572,0.13,0.37,0.28,0.22,0.13,0.32,0.39,0.16,11.6,13.49
1109,8,四拨子,40.043841,116.331169,1109,5,29847,0.14,0.42,0.21,0.23,0.06,0.55,0.24,0.15,12.25,14.13
1110,8,西三旗桥北,40.054985,116.322168,1110,5,29557,0.14,0.41,0.23,0.22,0.06,0.55,0.23,0.16,13.66,15.51
1111,3,龙兴园,40.059092,116.319435,1111,3,5227,0.15,0.34,0.28,0.23,0.21,0.29,0.32,0.18,14.17,16.01
1112,3,回龙观桥北,40.063039,116.316335,1112,3,5164,0.15,0.36,0.24,0.25,0.18,0.29,0.34,0.19,14.67,16.5
1113,3,回龙观桥南,40.06068,116.317037,1113,3,5460,0.15,0.35,0.25,0.25,0.19,0.31,0.33,0.17,14.4,16.23
1114,8,西二旗北路,40.059118,116.314962,1114,5,26147,0.15,0.37,0.26,0.22,0.05,0.56,0.24,0.15,14.3,16.12
1115,8,龙域西一路南口,40.05705,116.30732,1115,5,28162,0.14,0.38,0.27,0.21,0.06,0.53,0.26,0.15,14.32,16.09
1116,5,回龙观村西区,40.060821,116.30339,1116,5,11114,0.14,0.4,0.24,0.22,0.14,0.33,0.36,0.17,14.84,16.59
1117,5,金域华府西门,40.063605,116.301694,1117,5,10252,0.14,0.43,0.22,0.21,0.14,0.32,0.39,0.15,15.18,16.93
1118,5,龙域北街,40.065622,116.302578,1118,5,10135,0.14,0.41,0.21,0.24,0.15,0.35,0.35,0.15,15.36,17.12
1119,5,融泽嘉园南区北门,40.065936,116.304895,1119,5,11505,0.15,0.4,0.22,0.23,0.14,0.32,0.39,0.15,15.31,17.09
1120,5,龙域北街东口,40.066795,116.309344,1120,5,11840,0.15,0.37,0.25,0.23,0.13,0.33,0.38,0.16,15.26,17.07
1121,8,西三旗桥南,40.050997,116.324321,1121,5,26338,0.14,0.42,0.23,0.21,0.06,0.55,0.25,0.14,13.18,15.04
1122,5,上清桥南,40.019832,116.347942,1122,5,11116,0.15,0.39,0.24,0.22,0.14,0.32,0.36,0.18,9.29,11.24
1123,5,花虎沟,40.016401,116.351298,1123,5,10345,0.13,0.37,0.29,0.21,0.15,0.3,0.4,0.15,8.86,10.82
1124,5,万寿路口南,39.904578,116.28883,1124,6,11448,0.14,0.36,0.28,0.22,0.14,0.28,0.43,0.15,8.12,6.9
1125,5,太平路东口,39.898984,116.287968,1125,6,10795,0.14,0.4,0.25,0.21,0.14,0.3,0.42,0.14,8.49,7.15
1126,5,西翠路口东,39.898986,116.278852,1126,6,10402,0.16,0.39,0.23,0.22,0.15,0.29,0.4,0.16,9.16,7.89
1127,5,西翠路口西,39.898997,116.274727,1127,6,11972,0.15,0.4,0.25,0.2,0.14,0.31,0.38,0.17,9.47,8.23
1128,5,沙窝桥东,39.898998,116.269063,1128,6,10242,0.15,0.4,0.25,0.2,0.13,0.31,0.4,0.16,9.9,8.69
1129,5,永定路南口,39.898989,116.260239,1129,6,11694,0.14,0.35,0.31,0.2,0.15,0.28,0.4,0.17,10.58,9.42
1130,5,采石路口,39.899001,116.254552,1130,6,11293,0.17,0.35,0.26,0.22,0.15,0.3,0.4,0.15,11.02,9.89
1131,5,太平路西口,39.898984,116.249332,1131,6,11715,0.16,0.36,0.28,0.2,0.14,0.32,0.39,0.15,11.43,10.33
1132,5,鲁谷路东口,39.902704,116.245371,1132,6,11028,0.14,0.34,0.3,0.22,0.14,0.32,0.38,0.16,11.6,10.57
1133,5,十院,39.902704,116.238229,1133,6,10657,0.15,0.36,0.27,0.22,0.15,0.29,0.42,0.14,12.17,11.17
1134,5,鲁谷,39.902703,116.234656,1134,6,11537,0.14,0.36,0.29,0.21,0.14,0.28,0.43,0.15,12.46,11.47
1135,4,鲁谷西站,39.902697,116.228971,1135,6,8399,0.16,0.4,0.2,0.24,0.16,0.24,0.44,0.16,12.92,11.95
1136,4,焦家坟路口东,39.902688,116.224046,1136,6,8081,0.15,0.39,0.23,0.23,0.15,0.24,0.45,0.16,13.32,12.37
1137,4,永乐西小区,39.902675,116.218338,1137,6,8693,0.16,0.38,0.25,0.21,0.15,0.26,0.42,0.17,13.79,12.85
1138,5,衙门口东,39.902656,116.211506,1138,6,11095,0.16,0.39,0.24,0.21,0.13,0.27,0.42,0.18,14.35,13.42
